{"meta":{"code":200,"requestId":"5d29390dd29cbb002452a80a"},"response":{"suggestedFilters":{"header":"Tap to show:","filters":[{"name":"$-$$$$","key":"price"},{"name":"Open now","key":"openNow"}]},"headerLocation":"Riverview","headerFullLocation":"Riverview","headerLocationGranularity":"city","query":"food","totalResults":205,"suggestedBounds":{"ne":{"lat":28.005301067500067,"lng":-82.20966285761304},"sw":{"lat":27.870300932499934,"lng":-82.36218654238695}},"groups":[{"type":"Recommended Places","name":"recommended","items":[{"reasons":{"count":0,"items":[{"summary":"This spot is popular","type":"general","reasonName":"globalInteractionReason"}]},"venue":{"id":"4c051afef423a593f376d216","name":"Moreno Bakery","location":{"address":"737 W Brandon Blvd","lat":27.936402630138993,"lng":-82.295101913512,"labeledLatLngs":[{"label":"display","lat":27.936402630138993,"lng":-82.295101913512}],"distance":915,"postalCode":"33511","cc":"US","city":"Brandon","state":"FL","country":"United States","formattedAddress":["737 W Brandon Blvd","Brandon, FL 33511","United States"]},"categories":[{"id":"4bf58dd8d48988d16a941735","name":"Bakery","pluralName":"Bakeries","shortName":"Bakery","icon":{"prefix":"https:\/\/ss3.4sqi.net\/img\/categories_v2\/food\/bakery_","suffix":".png"},"primary":true}],"photos":{"count":0,"groups":[]}},"referralId":"e-3-4c051afef423a593f376d216-0"},{"reasons":{"count":0,"items":[{"summary":"This spot is popular","type":"general","reasonName":"globalInteractionReason"}]},"venue":{"id":"5171cd8a498e616e54b37189","name":"Thai legacy","location":{"address":"120 N Parsons Ave","lat":27.938569465854393,"lng":-82.2857601931196,"labeledLatLngs":[{"label":"display","lat":27.938569465854393,"lng":-82.2857601931196}],"distance":87,"postalCode":"33510","cc":"US","city":"Brandon","state":"FL","country":"United States","formattedAddress":["120 N Parsons Ave","Brandon, FL 33510","United States"]},"categories":[{"id":"4bf58dd8d48988d149941735","name":"Thai Restaurant","pluralName":"Thai Restaurants","shortName":"Thai","icon":{"prefix":"https:\/\/ss3.4sqi.net\/img\/categories_v2\/food\/thai_","suffix":".png"},"primary":true}],"photos":{"count":0,"groups":[]}},"referralId":"e-3-5171cd8a498e616e54b37189-1"},{"reasons":{"count":0,"items":[{"summary":"This spot is popular","type":"general","reasonName":"globalInteractionReason"}]},"venue":{"id":"4b7876ebf964a52026d02ee3","name":"Babe's Pizza","location":{"address":"107 N Kings Ave","lat":27.93866811479945,"lng":-82.2935858890099,"labeledLatLngs":[{"label":"display","lat":27.93866811479945,"lng":-82.2935858890099}],"distance":759,"postalCode":"33510","cc":"US","city":"Brandon","state":"FL","country":"United States","formattedAddress":["107 N Kings Ave","Brandon, FL 33510","United States"]},"categories":[{"id":"4bf58dd8d48988d1ca941735","name":"Pizza Place","pluralName":"Pizza Places","shortName":"Pizza","icon":{"prefix":"https:\/\/ss3.4sqi.net\/img\/categories_v2\/food\/pizza_","suffix":".png"},"primary":true}],"photos":{"count":0,"groups":[]}},"referralId":"e-3-4b7876ebf964a52026d02ee3-2"},{"reasons":{"count":0,"items":[{"summary":"This spot is popular","type":"general","reasonName":"globalInteractionReason"}]},"venue":{"id":"4e8f920f550342b5a3e1cce1","name":"Taste Of Berlin","location":{"address":"526 Oakfield Dr","lat":27.934251478210722,"lng":-82.29176661411653,"labeledLatLngs":[{"label":"display","lat":27.934251478210722,"lng":-82.29176661411653}],"distance":697,"postalCode":"33511","cc":"US","city":"Brandon","state":"FL","country":"United States","formattedAddress":["526 Oakfield Dr","Brandon, FL 33511","United States"]},"categories":[{"id":"4bf58dd8d48988d10d941735","name":"German Restaurant","pluralName":"German Restaurants","shortName":"German","icon":{"prefix":"https:\/\/ss3.4sqi.net\/img\/categories_v2\/food\/german_","suffix":".png"},"primary":true}],"photos":{"count":0,"groups":[]}},"referralId":"e-3-4e8f920f550342b5a3e1cce1-3"},{"reasons":{"count":0,"items":[{"summary":"This spot is popular","type":"general","reasonName":"globalInteractionReason"}]},"venue":{"id":"5261c02811d233a4c6d5e0b9","name":"Pho Viet","location":{"address":"1202 W Brandon Blvd","lat":27.938097159562474,"lng":-82.30100366214975,"labeledLatLngs":[{"label":"display","lat":27.938097159562474,"lng":-82.30100366214975}],"distance":1483,"postalCode":"33511","cc":"US","city":"Brandon","state":"FL","country":"United States","formattedAddress":["1202 W Brandon Blvd","Brandon, FL 33511","United States"]},"categories":[{"id":"4bf58dd8d48988d14a941735","name":"Vietnamese Restaurant","pluralName":"Vietnamese Restaurants","shortName":"Vietnamese","icon":{"prefix":"https:\/\/ss3.4sqi.net\/img\/categories_v2\/food\/vietnamese_","suffix":".png"},"primary":true}],"photos":{"count":0,"groups":[]}},"referralId":"e-3-5261c02811d233a4c6d5e0b9-4"},{"reasons":{"count":0,"items":[{"summary":"This spot is popular","type":"general","reasonName":"globalInteractionReason"}]},"venue":{"id":"4dcc1091d4c0dfa030dee096","name":"La Septima Cafe","location":{"address":"702 W Lumsden Rd","crossStreet":"at Kings Ave.","lat":27.924803441574117,"lng":-82.29434643684529,"labeledLatLngs":[{"label":"display","lat":27.924803441574117,"lng":-82.29434643684529}],"distance":1667,"postalCode":"33511","cc":"US","city":"Brandon","state":"FL","country":"United States","formattedAddress":["702 W Lumsden Rd (at Kings Ave.)","Brandon, FL 33511","United States"]},"categories":[{"id":"4bf58dd8d48988d154941735","name":"Cuban Restaurant","pluralName":"Cuban Restaurants","shortName":"Cuban","icon":{"prefix":"https:\/\/ss3.4sqi.net\/img\/categories_v2\/food\/cuban_","suffix":".png"},"primary":true}],"photos":{"count":0,"groups":[]}},"referralId":"e-3-4dcc1091d4c0dfa030dee096-5"},{"reasons":{"count":0,"items":[{"summary":"This spot is popular","type":"general","reasonName":"globalInteractionReason"}]},"venue":{"id":"4c4f177adb2c20a1a46d7b75","name":"Romano Restaurant","location":{"address":"901 W Brandon Blvd","lat":27.93646952626137,"lng":-82.29675203005533,"labeledLatLngs":[{"label":"display","lat":27.93646952626137,"lng":-82.29675203005533}],"distance":1075,"postalCode":"33511","cc":"US","city":"Brandon","state":"FL","country":"United States","formattedAddress":["901 W Brandon Blvd","Brandon, FL 33511","United States"]},"categories":[{"id":"4bf58dd8d48988d10e941735","name":"Greek Restaurant","pluralName":"Greek Restaurants","shortName":"Greek","icon":{"prefix":"https:\/\/ss3.4sqi.net\/img\/categories_v2\/food\/greek_","suffix":".png"},"primary":true}],"photos":{"count":0,"groups":[]}},"referralId":"e-3-4c4f177adb2c20a1a46d7b75-6"},{"reasons":{"count":0,"items":[{"summary":"This spot is popular","type":"general","reasonName":"globalInteractionReason"}]},"venue":{"id":"4cebfca9d99f721efdbac373","name":"Jesse's Steak & Seafood","location":{"address":"524 W Brandon Blvd","lat":27.93805214086931,"lng":-82.29202493370293,"labeledLatLngs":[{"label":"display","lat":27.93805214086931,"lng":-82.29202493370293}],"distance":600,"postalCode":"33511","cc":"US","city":"Brandon","state":"FL","country":"United States","formattedAddress":["524 W Brandon Blvd","Brandon, FL 33511","United States"]},"categories":[{"id":"4bf58dd8d48988d14e941735","name":"American Restaurant","pluralName":"American Restaurants","shortName":"American","icon":{"prefix":"https:\/\/ss3.4sqi.net\/img\/categories_v2\/food\/default_","suffix":".png"},"primary":true}],"photos":{"count":0,"groups":[]}},"referralId":"e-3-4cebfca9d99f721efdbac373-7"},{"reasons":{"count":0,"items":[{"summary":"This spot is popular","type":"general","reasonName":"globalInteractionReason"}]},"venue":{"id":"4e6a6c0c483bf2d9e638deb8","name":"Thai X-Press Cafe","location":{"address":"921 Lithia Pinecrest Rd","crossStreet":"Lumsden","lat":27.924548322958348,"lng":-82.26980211079696,"labeledLatLngs":[{"label":"display","lat":27.924548322958348,"lng":-82.26980211079696}],"distance":2165,"postalCode":"33511","cc":"US","city":"Brandon","state":"FL","country":"United States","formattedAddress":["921 Lithia Pinecrest Rd (Lumsden)","Brandon, FL 33511","United States"]},"categories":[{"id":"4bf58dd8d48988d149941735","name":"Thai Restaurant","pluralName":"Thai Restaurants","shortName":"Thai","icon":{"prefix":"https:\/\/ss3.4sqi.net\/img\/categories_v2\/food\/thai_","suffix":".png"},"primary":true}],"photos":{"count":0,"groups":[]},"venuePage":{"id":"84709979"}},"referralId":"e-3-4e6a6c0c483bf2d9e638deb8-8"},{"reasons":{"count":0,"items":[{"summary":"This spot is popular","type":"general","reasonName":"globalInteractionReason"}]},"venue":{"id":"4b5b9f40f964a5209d0b29e3","name":"Cali Viejo","location":{"address":"436 E Brandon Blvd","lat":27.93790017881685,"lng":-82.28005283914784,"labeledLatLngs":[{"label":"display","lat":27.93790017881685,"lng":-82.28005283914784}],"distance":577,"postalCode":"33511","cc":"US","city":"Brandon","state":"FL","country":"United States","formattedAddress":["436 E Brandon Blvd","Brandon, FL 33511","United States"]},"categories":[{"id":"4bf58dd8d48988d1cd941735","name":"South American Restaurant","pluralName":"South American Restaurants","shortName":"South American","icon":{"prefix":"https:\/\/ss3.4sqi.net\/img\/categories_v2\/food\/argentinian_","suffix":".png"},"primary":true}],"photos":{"count":0,"groups":[]}},"referralId":"e-3-4b5b9f40f964a5209d0b29e3-9"},{"reasons":{"count":0,"items":[{"summary":"This spot is popular","type":"general","reasonName":"globalInteractionReason"}]},"venue":{"id":"54295943498e54fc39db9e56","name":"Brandon Pizzeria","location":{"address":"140 N Parsons Ave","crossStreet":"W. Morgan St.","lat":27.93890426294332,"lng":-82.28592185817783,"labeledLatLngs":[{"label":"display","lat":27.93890426294332,"lng":-82.28592185817783}],"distance":122,"postalCode":"33510","cc":"US","city":"Brandon","state":"FL","country":"United States","formattedAddress":["140 N Parsons Ave (W. Morgan St.)","Brandon, FL 33510","United States"]},"categories":[{"id":"4bf58dd8d48988d1ca941735","name":"Pizza Place","pluralName":"Pizza Places","shortName":"Pizza","icon":{"prefix":"https:\/\/ss3.4sqi.net\/img\/categories_v2\/food\/pizza_","suffix":".png"},"primary":true}],"delivery":{"id":"1229488","url":"https:\/\/www.grubhub.com\/restaurant\/brandon-pizzeria-140-n-parsons-ave-brandon\/1229488?affiliate=1131&utm_source=foursquare-affiliate-network&utm_medium=affiliate&utm_campaign=1131&utm_content=1229488","provider":{"name":"grubhub","icon":{"prefix":"https:\/\/fastly.4sqi.net\/img\/general\/cap\/","sizes":[40,50],"name":"\/delivery_provider_grubhub_20180129.png"}}},"photos":{"count":0,"groups":[]}},"referralId":"e-3-54295943498e54fc39db9e56-10"},{"reasons":{"count":0,"items":[{"summary":"This spot is popular","type":"general","reasonName":"globalInteractionReason"}]},"venue":{"id":"4bf462ef354e9c743bbd2602","name":"Pomodoro Pizza & More","location":{"address":"1076 E Brandon Blvd #115","lat":27.940346624478792,"lng":-82.26626062643165,"labeledLatLngs":[{"label":"display","lat":27.940346624478792,"lng":-82.26626062643165}],"distance":1954,"postalCode":"33511","cc":"US","city":"Brandon","state":"FL","country":"United States","formattedAddress":["1076 E Brandon Blvd #115","Brandon, FL 33511","United States"]},"categories":[{"id":"4bf58dd8d48988d1ca941735","name":"Pizza Place","pluralName":"Pizza Places","shortName":"Pizza","icon":{"prefix":"https:\/\/ss3.4sqi.net\/img\/categories_v2\/food\/pizza_","suffix":".png"},"primary":true}],"photos":{"count":0,"groups":[]}},"referralId":"e-3-4bf462ef354e9c743bbd2602-11"},{"reasons":{"count":0,"items":[{"summary":"This spot is popular","type":"general","reasonName":"globalInteractionReason"}]},"venue":{"id":"4b4cd1cdf964a52023c026e3","name":"Chick-fil-A","location":{"address":"1504 E Brandon Blvd","lat":27.9383936,"lng":-82.2629171,"labeledLatLngs":[{"label":"display","lat":27.9383936,"lng":-82.2629171}],"distance":2263,"postalCode":"33511","cc":"US","city":"Brandon","state":"FL","country":"United States","formattedAddress":["1504 E Brandon Blvd","Brandon, FL 33511","United States"]},"categories":[{"id":"4bf58dd8d48988d16e941735","name":"Fast Food Restaurant","pluralName":"Fast Food Restaurants","shortName":"Fast Food","icon":{"prefix":"https:\/\/ss3.4sqi.net\/img\/categories_v2\/food\/fastfood_","suffix":".png"},"primary":true}],"photos":{"count":0,"groups":[]}},"referralId":"e-3-4b4cd1cdf964a52023c026e3-12"},{"reasons":{"count":0,"items":[{"summary":"This spot is popular","type":"general","reasonName":"globalInteractionReason"}]},"venue":{"id":"4b256025f964a520df7024e3","name":"Yokohama","location":{"address":"760 W Lumsden Rd","crossStreet":"at Kings Ave.","lat":27.924699764453443,"lng":-82.29579627523934,"labeledLatLngs":[{"label":"display","lat":27.924699764453443,"lng":-82.29579627523934}],"distance":1752,"postalCode":"33511","cc":"US","city":"Brandon","state":"FL","country":"United States","formattedAddress":["760 W Lumsden Rd (at Kings Ave.)","Brandon, FL 33511","United States"]},"categories":[{"id":"4bf58dd8d48988d111941735","name":"Japanese Restaurant","pluralName":"Japanese Restaurants","shortName":"Japanese","icon":{"prefix":"https:\/\/ss3.4sqi.net\/img\/categories_v2\/food\/japanese_","suffix":".png"},"primary":true}],"photos":{"count":0,"groups":[]}},"referralId":"e-3-4b256025f964a520df7024e3-13"},{"reasons":{"count":0,"items":[{"summary":"This spot is popular","type":"general","reasonName":"globalInteractionReason"}]},"venue":{"id":"4bcb42a7b6c49c7463ca9191","name":"Beef 'O' Brady's","location":{"address":"210 S Kings Ave","crossStreet":"at Oakfield dr.","lat":27.935238669179,"lng":-82.29426513034784,"labeledLatLngs":[{"label":"display","lat":27.935238669179,"lng":-82.29426513034784}],"distance":868,"postalCode":"33511","cc":"US","city":"Brandon","state":"FL","country":"United States","formattedAddress":["210 S Kings Ave (at Oakfield dr.)","Brandon, FL 33511","United States"]},"categories":[{"id":"4bf58dd8d48988d14e941735","name":"American Restaurant","pluralName":"American Restaurants","shortName":"American","icon":{"prefix":"https:\/\/ss3.4sqi.net\/img\/categories_v2\/food\/default_","suffix":".png"},"primary":true}],"photos":{"count":0,"groups":[]},"venuePage":{"id":"32898718"}},"referralId":"e-3-4bcb42a7b6c49c7463ca9191-14"},{"reasons":{"count":0,"items":[{"summary":"This spot is popular","type":"general","reasonName":"globalInteractionReason"}]},"venue":{"id":"4c5019a4f080a59394dfefe1","name":"La Cubanita Cafe","location":{"address":"723 W Lumsden Rd","lat":27.92217949360207,"lng":-82.2957016250665,"labeledLatLngs":[{"label":"display","lat":27.92217949360207,"lng":-82.2957016250665}],"distance":1987,"postalCode":"33511","cc":"US","city":"Brandon","state":"FL","country":"United States","formattedAddress":["723 W Lumsden Rd","Brandon, FL 33511","United States"]},"categories":[{"id":"4bf58dd8d48988d154941735","name":"Cuban Restaurant","pluralName":"Cuban Restaurants","shortName":"Cuban","icon":{"prefix":"https:\/\/ss3.4sqi.net\/img\/categories_v2\/food\/cuban_","suffix":".png"},"primary":true}],"photos":{"count":0,"groups":[]}},"referralId":"e-3-4c5019a4f080a59394dfefe1-15"},{"reasons":{"count":0,"items":[{"summary":"This spot is popular","type":"general","reasonName":"globalInteractionReason"}]},"venue":{"id":"55aecb34498ee9841b84dad1","name":"Sushi Ushi","location":{"address":"1713 E State Road 60","lat":27.936995723679207,"lng":-82.25931644439697,"labeledLatLngs":[{"label":"display","lat":27.936995723679207,"lng":-82.25931644439697}],"distance":2618,"postalCode":"33594","cc":"US","city":"Valrico","state":"FL","country":"United States","formattedAddress":["1713 E State Road 60","Valrico, FL 33594","United States"]},"categories":[{"id":"4bf58dd8d48988d111941735","name":"Japanese Restaurant","pluralName":"Japanese Restaurants","shortName":"Japanese","icon":{"prefix":"https:\/\/ss3.4sqi.net\/img\/categories_v2\/food\/japanese_","suffix":".png"},"primary":true}],"photos":{"count":0,"groups":[]},"venuePage":{"id":"139868095"}},"referralId":"e-3-55aecb34498ee9841b84dad1-16"},{"reasons":{"count":0,"items":[{"summary":"This spot is popular","type":"general","reasonName":"globalInteractionReason"}]},"venue":{"id":"57bcd63f498e7db7d8ebcc0c","name":"Tibby's New Orleans Kitchen","location":{"lat":27.93741275423559,"lng":-82.31119729870852,"labeledLatLngs":[{"label":"display","lat":27.93741275423559,"lng":-82.31119729870852}],"distance":2485,"postalCode":"33511","cc":"US","neighborhood":"Bloomingdale Ridge","city":"Brandon","state":"FL","country":"United States","formattedAddress":["Brandon, FL 33511","United States"]},"categories":[{"id":"4bf58dd8d48988d17a941735","name":"Cajun \/ Creole Restaurant","pluralName":"Cajun \/ Creole Restaurants","shortName":"Cajun \/ Creole","icon":{"prefix":"https:\/\/ss3.4sqi.net\/img\/categories_v2\/food\/cajun_","suffix":".png"},"primary":true}],"photos":{"count":0,"groups":[]}},"referralId":"e-3-57bcd63f498e7db7d8ebcc0c-17"},{"reasons":{"count":0,"items":[{"summary":"This spot is popular","type":"general","reasonName":"globalInteractionReason"}]},"venue":{"id":"4ba3c227f964a520245c38e3","name":"The Oaks Bar & Grill","location":{"address":"108 Lithia Pinecrest Rd","crossStreet":"60","lat":27.93708642647228,"lng":-82.28123859395133,"labeledLatLngs":[{"label":"display","lat":27.93708642647228,"lng":-82.28123859395133}],"distance":467,"postalCode":"33511","cc":"US","city":"Brandon","state":"FL","country":"United States","formattedAddress":["108 Lithia Pinecrest Rd (60)","Brandon, FL 33511","United States"]},"categories":[{"id":"4bf58dd8d48988d14e941735","name":"American Restaurant","pluralName":"American Restaurants","shortName":"American","icon":{"prefix":"https:\/\/ss3.4sqi.net\/img\/categories_v2\/food\/default_","suffix":".png"},"primary":true}],"photos":{"count":0,"groups":[]}},"referralId":"e-3-4ba3c227f964a520245c38e3-18"},{"reasons":{"count":0,"items":[{"summary":"This spot is popular","type":"general","reasonName":"globalInteractionReason"}]},"venue":{"id":"4b23d54df964a520c25a24e3","name":"Anthony's Coal Fired Pizza","location":{"address":"1912 W Brandon Blvd","crossStreet":"Off Exit 56 I-75, east of Brandon Town Center","lat":27.93806782031939,"lng":-82.31584360647572,"labeledLatLngs":[{"label":"display","lat":27.93806782031939,"lng":-82.31584360647572}],"distance":2942,"postalCode":"33511","cc":"US","city":"Brandon","state":"FL","country":"United States","formattedAddress":["1912 W Brandon Blvd (Off Exit 56 I-75, east of Brandon Town Center)","Brandon, FL 33511","United States"]},"categories":[{"id":"4bf58dd8d48988d1ca941735","name":"Pizza Place","pluralName":"Pizza Places","shortName":"Pizza","icon":{"prefix":"https:\/\/ss3.4sqi.net\/img\/categories_v2\/food\/pizza_","suffix":".png"},"primary":true}],"delivery":{"id":"670872","url":"https:\/\/www.grubhub.com\/restaurant\/anthonys-coal-fired-pizza-1912-w-brandon-blvd-brandon\/670872?affiliate=1131&utm_source=foursquare-affiliate-network&utm_medium=affiliate&utm_campaign=1131&utm_content=670872","provider":{"name":"grubhub","icon":{"prefix":"https:\/\/fastly.4sqi.net\/img\/general\/cap\/","sizes":[40,50],"name":"\/delivery_provider_grubhub_20180129.png"}}},"photos":{"count":0,"groups":[]}},"referralId":"e-3-4b23d54df964a520c25a24e3-19"},{"reasons":{"count":0,"items":[{"summary":"This spot is popular","type":"general","reasonName":"globalInteractionReason"}]},"venue":{"id":"4b33cae5f964a520461f25e3","name":"Sabor A Mexico","location":{"address":"706 E Brandon Blvd","lat":27.938004899186758,"lng":-82.27463599152881,"labeledLatLngs":[{"label":"display","lat":27.938004899186758,"lng":-82.27463599152881}],"distance":1110,"postalCode":"33511","cc":"US","city":"Brandon","state":"FL","country":"United States","formattedAddress":["706 E Brandon Blvd","Brandon, FL 33511","United States"]},"categories":[{"id":"4bf58dd8d48988d1c1941735","name":"Mexican Restaurant","pluralName":"Mexican Restaurants","shortName":"Mexican","icon":{"prefix":"https:\/\/ss3.4sqi.net\/img\/categories_v2\/food\/mexican_","suffix":".png"},"primary":true}],"photos":{"count":0,"groups":[]}},"referralId":"e-3-4b33cae5f964a520461f25e3-20"},{"reasons":{"count":0,"items":[{"summary":"This spot is popular","type":"general","reasonName":"globalInteractionReason"}]},"venue":{"id":"56fdb196498e5f8c5179c994","name":"Portillo's","location":{"address":"1748 W Brandon Blvd","lat":27.93819238183879,"lng":-82.31183409690851,"labeledLatLngs":[{"label":"display","lat":27.93819238183879,"lng":-82.31183409690851}],"distance":2548,"postalCode":"33511","cc":"US","city":"Brandon","state":"FL","country":"United States","formattedAddress":["1748 W Brandon Blvd","Brandon, FL 33511","United States"]},"categories":[{"id":"4bf58dd8d48988d16f941735","name":"Hot Dog Joint","pluralName":"Hot Dog Joints","shortName":"Hot Dogs","icon":{"prefix":"https:\/\/ss3.4sqi.net\/img\/categories_v2\/food\/hotdog_","suffix":".png"},"primary":true}],"photos":{"count":0,"groups":[]}},"referralId":"e-3-56fdb196498e5f8c5179c994-21"},{"reasons":{"count":0,"items":[{"summary":"This spot is popular","type":"general","reasonName":"globalInteractionReason"}]},"venue":{"id":"4e4c9410bd413c4cc66a738f","name":"Shells Seafood Restaurant - Brandon","location":{"address":"115 E Brandon Blvd","lat":27.93679011735561,"lng":-82.28478464159849,"labeledLatLngs":[{"label":"display","lat":27.93679011735561,"lng":-82.28478464159849}],"distance":158,"postalCode":"33511","cc":"US","city":"Brandon","state":"FL","country":"United States","formattedAddress":["115 E Brandon Blvd","Brandon, FL 33511","United States"]},"categories":[{"id":"4bf58dd8d48988d1ce941735","name":"Seafood Restaurant","pluralName":"Seafood Restaurants","shortName":"Seafood","icon":{"prefix":"https:\/\/ss3.4sqi.net\/img\/categories_v2\/food\/seafood_","suffix":".png"},"primary":true}],"photos":{"count":0,"groups":[]}},"referralId":"e-3-4e4c9410bd413c4cc66a738f-22"},{"reasons":{"count":0,"items":[{"summary":"This spot is popular","type":"general","reasonName":"globalInteractionReason"}]},"venue":{"id":"4b072da1f964a520edf822e3","name":"Miller's Ale House","location":{"address":"1817 WEST BRANDON BLVD.","lat":27.93766,"lng":-82.31042,"labeledLatLngs":[{"label":"display","lat":27.93766,"lng":-82.31042}],"distance":2409,"postalCode":"33511","cc":"US","city":"Brandon","state":"FL","country":"United States","formattedAddress":["1817 WEST BRANDON BLVD.","Brandon, FL 33511","United States"]},"categories":[{"id":"4bf58dd8d48988d1c4941735","name":"Restaurant","pluralName":"Restaurants","shortName":"Restaurant","icon":{"prefix":"https:\/\/ss3.4sqi.net\/img\/categories_v2\/food\/default_","suffix":".png"},"primary":true}],"photos":{"count":0,"groups":[]}},"referralId":"e-3-4b072da1f964a520edf822e3-23"},{"reasons":{"count":0,"items":[{"summary":"This spot is popular","type":"general","reasonName":"globalInteractionReason"}]},"venue":{"id":"4c7814f2bd346dcbd6eaf0ef","name":"Five Guys","location":{"address":"1513 West Brandon Blvd.","lat":27.93735269840895,"lng":-82.30776039279867,"labeledLatLngs":[{"label":"display","lat":27.93735269840895,"lng":-82.30776039279867}],"distance":2148,"postalCode":"33511","cc":"US","city":"Brandon","state":"FL","country":"United States","formattedAddress":["1513 West Brandon Blvd.","Brandon, FL 33511","United States"]},"categories":[{"id":"4bf58dd8d48988d16c941735","name":"Burger Joint","pluralName":"Burger Joints","shortName":"Burgers","icon":{"prefix":"https:\/\/ss3.4sqi.net\/img\/categories_v2\/food\/burger_","suffix":".png"},"primary":true}],"photos":{"count":0,"groups":[]}},"referralId":"e-3-4c7814f2bd346dcbd6eaf0ef-24"},{"reasons":{"count":0,"items":[{"summary":"This spot is popular","type":"general","reasonName":"globalInteractionReason"}]},"venue":{"id":"4b984118f964a520863735e3","name":"Ploy Thai","location":{"address":"1941 W Brandon Blvd","crossStreet":"SR 60","lat":27.93718305149021,"lng":-82.31600781434234,"labeledLatLngs":[{"label":"display","lat":27.93718305149021,"lng":-82.31600781434234}],"distance":2959,"postalCode":"33511","cc":"US","city":"Brandon","state":"FL","country":"United States","formattedAddress":["1941 W Brandon Blvd (SR 60)","Brandon, FL 33511","United States"]},"categories":[{"id":"4bf58dd8d48988d149941735","name":"Thai Restaurant","pluralName":"Thai Restaurants","shortName":"Thai","icon":{"prefix":"https:\/\/ss3.4sqi.net\/img\/categories_v2\/food\/thai_","suffix":".png"},"primary":true}],"photos":{"count":0,"groups":[]}},"referralId":"e-3-4b984118f964a520863735e3-25"},{"reasons":{"count":0,"items":[{"summary":"This spot is popular","type":"general","reasonName":"globalInteractionReason"}]},"venue":{"id":"553b117e498e5b4d0149bac9","name":"Salem's Gyros and subs","location":{"address":"903 W Brandon Blvd","lat":27.937373374547235,"lng":-82.29725241268554,"labeledLatLngs":[{"label":"display","lat":27.937373374547235,"lng":-82.29725241268554}],"distance":1115,"postalCode":"33511","cc":"US","city":"Brandon","state":"FL","country":"United States","formattedAddress":["903 W Brandon Blvd","Brandon, FL 33511","United States"]},"categories":[{"id":"4bf58dd8d48988d14e941735","name":"American Restaurant","pluralName":"American Restaurants","shortName":"American","icon":{"prefix":"https:\/\/ss3.4sqi.net\/img\/categories_v2\/food\/default_","suffix":".png"},"primary":true}],"photos":{"count":0,"groups":[]}},"referralId":"e-3-553b117e498e5b4d0149bac9-26"},{"reasons":{"count":0,"items":[{"summary":"This spot is popular","type":"general","reasonName":"globalInteractionReason"}]},"venue":{"id":"4b0586c5f964a520946d22e3","name":"Carrabba's Italian Grill","location":{"address":"801 Providence Rd","lat":27.925242149597054,"lng":-82.3151127632206,"labeledLatLngs":[{"label":"display","lat":27.925242149597054,"lng":-82.3151127632206}],"distance":3193,"postalCode":"33511","cc":"US","city":"Brandon","state":"FL","country":"United States","formattedAddress":["801 Providence Rd","Brandon, FL 33511","United States"]},"categories":[{"id":"4bf58dd8d48988d110941735","name":"Italian Restaurant","pluralName":"Italian Restaurants","shortName":"Italian","icon":{"prefix":"https:\/\/ss3.4sqi.net\/img\/categories_v2\/food\/italian_","suffix":".png"},"primary":true}],"delivery":{"id":"1209837","url":"https:\/\/www.grubhub.com\/restaurant\/carrabbas-italian-grill-801-providence-rd-brandon\/1209837?affiliate=1131&utm_source=foursquare-affiliate-network&utm_medium=affiliate&utm_campaign=1131&utm_content=1209837","provider":{"name":"grubhub","icon":{"prefix":"https:\/\/fastly.4sqi.net\/img\/general\/cap\/","sizes":[40,50],"name":"\/delivery_provider_grubhub_20180129.png"}}},"photos":{"count":0,"groups":[]}},"referralId":"e-3-4b0586c5f964a520946d22e3-27"},{"reasons":{"count":0,"items":[{"summary":"This spot is popular","type":"general","reasonName":"globalInteractionReason"}]},"venue":{"id":"4c59e7935c57c9b638f71b4a","name":"Bubbaque's BBQ","location":{"address":"957 E Brandon Blvd","lat":27.937478233861558,"lng":-82.26999681516453,"labeledLatLngs":[{"label":"display","lat":27.937478233861558,"lng":-82.26999681516453}],"distance":1566,"postalCode":"33511","cc":"US","city":"Brandon","state":"FL","country":"United States","formattedAddress":["957 E Brandon Blvd","Brandon, FL 33511","United States"]},"categories":[{"id":"4bf58dd8d48988d1df931735","name":"BBQ Joint","pluralName":"BBQ Joints","shortName":"BBQ","icon":{"prefix":"https:\/\/ss3.4sqi.net\/img\/categories_v2\/food\/bbqalt_","suffix":".png"},"primary":true}],"photos":{"count":0,"groups":[]}},"referralId":"e-3-4c59e7935c57c9b638f71b4a-28"},{"reasons":{"count":0,"items":[{"summary":"This spot is popular","type":"general","reasonName":"globalInteractionReason"}]},"venue":{"id":"540dd3f4498efcfbb6cd2a00","name":"PDQ","location":{"address":"134 S Gornto Lake Rd","crossStreet":"at W Brandon Blvd","lat":27.9365302824147,"lng":-82.31933397898841,"labeledLatLngs":[{"label":"display","lat":27.9365302824147,"lng":-82.31933397898841}],"distance":3288,"postalCode":"33511","cc":"US","city":"Riverview","state":"FL","country":"United States","formattedAddress":["134 S Gornto Lake Rd (at W Brandon Blvd)","Riverview, FL 33511","United States"]},"categories":[{"id":"4d4ae6fc7a7b7dea34424761","name":"Fried Chicken Joint","pluralName":"Fried Chicken Joints","shortName":"Fried Chicken","icon":{"prefix":"https:\/\/ss3.4sqi.net\/img\/categories_v2\/food\/friedchicken_","suffix":".png"},"primary":true}],"photos":{"count":0,"groups":[]}},"referralId":"e-3-540dd3f4498efcfbb6cd2a00-29"},{"reasons":{"count":0,"items":[{"summary":"This spot is popular","type":"general","reasonName":"globalInteractionReason"}]},"venue":{"id":"4ba50957f964a520d0d338e3","name":"Pizza Haven Inc.","location":{"address":"122 E Brandon Blvd","lat":27.938786100926038,"lng":-82.28467387173676,"labeledLatLngs":[{"label":"display","lat":27.938786100926038,"lng":-82.28467387173676}],"distance":164,"postalCode":"33511","cc":"US","city":"Brandon","state":"FL","country":"United States","formattedAddress":["122 E Brandon Blvd","Brandon, FL 33511","United States"]},"categories":[{"id":"4bf58dd8d48988d1ca941735","name":"Pizza Place","pluralName":"Pizza Places","shortName":"Pizza","icon":{"prefix":"https:\/\/ss3.4sqi.net\/img\/categories_v2\/food\/pizza_","suffix":".png"},"primary":true}],"photos":{"count":0,"groups":[]}},"referralId":"e-3-4ba50957f964a520d0d338e3-30"},{"reasons":{"count":0,"items":[{"summary":"This spot is popular","type":"general","reasonName":"globalInteractionReason"}]},"venue":{"id":"4b9990e6f964a5201d8435e3","name":"Tandoor Indian Cuisine","location":{"address":"805 E Brandon Blvd","crossStreet":"at Oakwood Ave.","lat":27.937319112362275,"lng":-82.27308793793914,"labeledLatLngs":[{"label":"display","lat":27.937319112362275,"lng":-82.27308793793914}],"distance":1263,"postalCode":"33511","cc":"US","city":"Brandon","state":"FL","country":"United States","formattedAddress":["805 E Brandon Blvd (at Oakwood Ave.)","Brandon, FL 33511","United States"]},"categories":[{"id":"4bf58dd8d48988d10f941735","name":"Indian Restaurant","pluralName":"Indian Restaurants","shortName":"Indian","icon":{"prefix":"https:\/\/ss3.4sqi.net\/img\/categories_v2\/food\/indian_","suffix":".png"},"primary":true}],"delivery":{"id":"563689","url":"https:\/\/www.grubhub.com\/restaurant\/tandoor-indian-cuisine-805-e-brandon-blvd-brandon\/563689?affiliate=1131&utm_source=foursquare-affiliate-network&utm_medium=affiliate&utm_campaign=1131&utm_content=563689","provider":{"name":"grubhub","icon":{"prefix":"https:\/\/fastly.4sqi.net\/img\/general\/cap\/","sizes":[40,50],"name":"\/delivery_provider_grubhub_20180129.png"}}},"photos":{"count":0,"groups":[]}},"referralId":"e-3-4b9990e6f964a5201d8435e3-31"},{"reasons":{"count":0,"items":[{"summary":"This spot is popular","type":"general","reasonName":"globalInteractionReason"}]},"venue":{"id":"569988e8498e6d5eace294a8","name":"Jimmy Hula's","location":{"address":"312 E Brandon Blvd","lat":27.937905536543575,"lng":-82.28281476834528,"labeledLatLngs":[{"label":"display","lat":27.937905536543575,"lng":-82.28281476834528}],"distance":306,"cc":"US","city":"Brandon","state":"FL","country":"United States","formattedAddress":["312 E Brandon Blvd","Brandon, FL","United States"]},"categories":[{"id":"52e81612bcbc57f1066b79fe","name":"Hawaiian Restaurant","pluralName":"Hawaiian Restaurants","shortName":"Hawaiian","icon":{"prefix":"https:\/\/ss3.4sqi.net\/img\/categories_v2\/food\/default_","suffix":".png"},"primary":true}],"photos":{"count":0,"groups":[]}},"referralId":"e-3-569988e8498e6d5eace294a8-32"},{"reasons":{"count":0,"items":[{"summary":"This spot is popular","type":"general","reasonName":"globalInteractionReason"}]},"venue":{"id":"4b78805bf964a5208bd22ee3","name":"Jo-To Japanese Steakhouse","location":{"address":"905 Lithia Pinecrest Rd","lat":27.92478916060259,"lng":-82.27028032345044,"labeledLatLngs":[{"label":"display","lat":27.92478916060259,"lng":-82.27028032345044}],"distance":2113,"postalCode":"33511","cc":"US","city":"Brandon","state":"FL","country":"United States","formattedAddress":["905 Lithia Pinecrest Rd","Brandon, FL 33511","United States"]},"categories":[{"id":"4bf58dd8d48988d111941735","name":"Japanese Restaurant","pluralName":"Japanese Restaurants","shortName":"Japanese","icon":{"prefix":"https:\/\/ss3.4sqi.net\/img\/categories_v2\/food\/japanese_","suffix":".png"},"primary":true}],"photos":{"count":0,"groups":[]}},"referralId":"e-3-4b78805bf964a5208bd22ee3-33"},{"reasons":{"count":0,"items":[{"summary":"This spot is popular","type":"general","reasonName":"globalInteractionReason"}]},"venue":{"id":"4b649f72f964a52019c32ae3","name":"Cracker Barrel Old Country Store","location":{"address":"1880 E State Road 60","lat":27.938506961180366,"lng":-82.25678675619477,"labeledLatLngs":[{"label":"display","lat":27.938506961180366,"lng":-82.25678675619477}],"distance":2866,"postalCode":"33594","cc":"US","city":"Valrico","state":"FL","country":"United States","formattedAddress":["1880 E State Road 60","Valrico, FL 33594","United States"]},"categories":[{"id":"4bf58dd8d48988d14e941735","name":"American Restaurant","pluralName":"American Restaurants","shortName":"American","icon":{"prefix":"https:\/\/ss3.4sqi.net\/img\/categories_v2\/food\/default_","suffix":".png"},"primary":true}],"photos":{"count":0,"groups":[]}},"referralId":"e-3-4b649f72f964a52019c32ae3-34"},{"reasons":{"count":0,"items":[{"summary":"This spot is popular","type":"general","reasonName":"globalInteractionReason"}]},"venue":{"id":"5826344a8e003314e056d910","name":"Black Rock Bar & Grill - Brandon","location":{"address":"804 Providence Rd","crossStreet":"Causeway Blvd.","lat":27.926258544786716,"lng":-82.31599213995909,"labeledLatLngs":[{"label":"display","lat":27.926258544786716,"lng":-82.31599213995909}],"distance":3224,"postalCode":"33511","cc":"US","city":"Brandon","state":"FL","country":"United States","formattedAddress":["804 Providence Rd (Causeway Blvd.)","Brandon, FL 33511","United States"]},"categories":[{"id":"4bf58dd8d48988d1cc941735","name":"Steakhouse","pluralName":"Steakhouses","shortName":"Steakhouse","icon":{"prefix":"https:\/\/ss3.4sqi.net\/img\/categories_v2\/food\/steakhouse_","suffix":".png"},"primary":true}],"photos":{"count":0,"groups":[]},"venuePage":{"id":"440259536"}},"referralId":"e-3-5826344a8e003314e056d910-35"},{"reasons":{"count":0,"items":[{"summary":"This spot is popular","type":"general","reasonName":"globalInteractionReason"}]},"venue":{"id":"526ef70d11d29e04fa4ea839","name":"Sushi Maru","location":{"address":"2020 W Brandon Blvd Ste 160","lat":27.938462370155317,"lng":-82.31799739346658,"labeledLatLngs":[{"label":"display","lat":27.938462370155317,"lng":-82.31799739346658}],"distance":3155,"postalCode":"33511","cc":"US","city":"Brandon","state":"FL","country":"United States","formattedAddress":["2020 W Brandon Blvd Ste 160","Brandon, FL 33511","United States"]},"categories":[{"id":"4bf58dd8d48988d111941735","name":"Japanese Restaurant","pluralName":"Japanese Restaurants","shortName":"Japanese","icon":{"prefix":"https:\/\/ss3.4sqi.net\/img\/categories_v2\/food\/japanese_","suffix":".png"},"primary":true}],"photos":{"count":0,"groups":[]}},"referralId":"e-3-526ef70d11d29e04fa4ea839-36"},{"reasons":{"count":0,"items":[{"summary":"This spot is popular","type":"general","reasonName":"globalInteractionReason"}]},"venue":{"id":"4b0586c7f964a520036e22e3","name":"Outback Steakhouse","location":{"address":"2020 W Brandon Blvd Ste 190","lat":27.938163097231577,"lng":-82.31824712941544,"labeledLatLngs":[{"label":"display","lat":27.938163097231577,"lng":-82.31824712941544}],"distance":3179,"postalCode":"33511","cc":"US","city":"Brandon","state":"FL","country":"United States","formattedAddress":["2020 W Brandon Blvd Ste 190","Brandon, FL 33511","United States"]},"categories":[{"id":"4bf58dd8d48988d1cc941735","name":"Steakhouse","pluralName":"Steakhouses","shortName":"Steakhouse","icon":{"prefix":"https:\/\/ss3.4sqi.net\/img\/categories_v2\/food\/steakhouse_","suffix":".png"},"primary":true}],"photos":{"count":0,"groups":[]}},"referralId":"e-3-4b0586c7f964a520036e22e3-37"},{"reasons":{"count":0,"items":[{"summary":"This spot is popular","type":"general","reasonName":"globalInteractionReason"}]},"venue":{"id":"4d6d7539a6ff721e002bc420","name":"Silver Spoon Pakistani & Indian Restaurant","location":{"address":"955 E Brandon Blvd","lat":27.937241427226414,"lng":-82.26992823907679,"labeledLatLngs":[{"label":"display","lat":27.937241427226414,"lng":-82.26992823907679}],"distance":1574,"postalCode":"33511","cc":"US","city":"Brandon","state":"FL","country":"United States","formattedAddress":["955 E Brandon Blvd","Brandon, FL 33511","United States"]},"categories":[{"id":"4bf58dd8d48988d10f941735","name":"Indian Restaurant","pluralName":"Indian Restaurants","shortName":"Indian","icon":{"prefix":"https:\/\/ss3.4sqi.net\/img\/categories_v2\/food\/indian_","suffix":".png"},"primary":true}],"photos":{"count":0,"groups":[]}},"referralId":"e-3-4d6d7539a6ff721e002bc420-38"},{"reasons":{"count":0,"items":[{"summary":"This spot is popular","type":"general","reasonName":"globalInteractionReason"}]},"venue":{"id":"4b4b7eaff964a520f49d26e3","name":"Chick-fil-A","location":{"address":"11325 Causeway Blvd","lat":27.9226642,"lng":-82.3210671,"labeledLatLngs":[{"label":"display","lat":27.9226642,"lng":-82.3210671}],"distance":3845,"postalCode":"33511","cc":"US","city":"Brandon","state":"FL","country":"United States","formattedAddress":["11325 Causeway Blvd","Brandon, FL 33511","United States"]},"categories":[{"id":"4bf58dd8d48988d16e941735","name":"Fast Food Restaurant","pluralName":"Fast Food Restaurants","shortName":"Fast Food","icon":{"prefix":"https:\/\/ss3.4sqi.net\/img\/categories_v2\/food\/fastfood_","suffix":".png"},"primary":true}],"photos":{"count":0,"groups":[]}},"referralId":"e-3-4b4b7eaff964a520f49d26e3-39"},{"reasons":{"count":0,"items":[{"summary":"This spot is popular","type":"general","reasonName":"globalInteractionReason"}]},"venue":{"id":"4b51275ff964a520084527e3","name":"Kobe Japanese Steakhouse & Sushi Bar","location":{"address":"2210 W Brandon Blvd","lat":27.93948,"lng":-82.32171,"labeledLatLngs":[{"label":"display","lat":27.93948,"lng":-82.32171}],"distance":3524,"postalCode":"33511","cc":"US","city":"Brandon","state":"FL","country":"United States","formattedAddress":["2210 W Brandon Blvd","Brandon, FL 33511","United States"]},"categories":[{"id":"4bf58dd8d48988d1d2941735","name":"Sushi Restaurant","pluralName":"Sushi Restaurants","shortName":"Sushi","icon":{"prefix":"https:\/\/ss3.4sqi.net\/img\/categories_v2\/food\/sushi_","suffix":".png"},"primary":true}],"photos":{"count":0,"groups":[]}},"referralId":"e-3-4b51275ff964a520084527e3-40"},{"reasons":{"count":0,"items":[{"summary":"This spot is popular","type":"general","reasonName":"globalInteractionReason"}]},"venue":{"id":"4b644baef964a52001a92ae3","name":"Waffle House","location":{"address":"1412 W. Brandon Blvd","lat":27.938086632583666,"lng":-82.30499033152965,"labeledLatLngs":[{"label":"display","lat":27.938086632583666,"lng":-82.30499033152965}],"distance":1875,"postalCode":"33511","cc":"US","city":"Brandon","state":"FL","country":"United States","formattedAddress":["1412 W. Brandon Blvd","Brandon, FL 33511","United States"]},"categories":[{"id":"4bf58dd8d48988d143941735","name":"Breakfast Spot","pluralName":"Breakfast Spots","shortName":"Breakfast","icon":{"prefix":"https:\/\/ss3.4sqi.net\/img\/categories_v2\/food\/breakfast_","suffix":".png"},"primary":true}],"photos":{"count":0,"groups":[]}},"referralId":"e-3-4b644baef964a52001a92ae3-41"},{"reasons":{"count":0,"items":[{"summary":"This spot is popular","type":"general","reasonName":"globalInteractionReason"}]},"venue":{"id":"4bb7cd3db35776b08a34c801","name":"Bonefish Grill","location":{"address":"1015 Providence Rd","crossStreet":"at Causeway Blvd","lat":27.922116041345596,"lng":-82.3182088318047,"labeledLatLngs":[{"label":"display","lat":27.922116041345596,"lng":-82.3182088318047}],"distance":3623,"postalCode":"33511","cc":"US","city":"Brandon","state":"FL","country":"United States","formattedAddress":["1015 Providence Rd (at Causeway Blvd)","Brandon, FL 33511","United States"]},"categories":[{"id":"4bf58dd8d48988d1ce941735","name":"Seafood Restaurant","pluralName":"Seafood Restaurants","shortName":"Seafood","icon":{"prefix":"https:\/\/ss3.4sqi.net\/img\/categories_v2\/food\/seafood_","suffix":".png"},"primary":true}],"photos":{"count":0,"groups":[]}},"referralId":"e-3-4bb7cd3db35776b08a34c801-42"},{"reasons":{"count":0,"items":[{"summary":"This spot is popular","type":"general","reasonName":"globalInteractionReason"}]},"venue":{"id":"4f77166de4b0b9643a05b4a3","name":"Jimmy John's","location":{"address":"659 W Brandon Blvd","lat":27.93719712416008,"lng":-82.29357580850119,"labeledLatLngs":[{"label":"display","lat":27.93719712416008,"lng":-82.29357580850119}],"distance":755,"postalCode":"33511","cc":"US","city":"Brandon","state":"FL","country":"United States","formattedAddress":["659 W Brandon Blvd","Brandon, FL 33511","United States"]},"categories":[{"id":"4bf58dd8d48988d1c5941735","name":"Sandwich Place","pluralName":"Sandwich Places","shortName":"Sandwiches","icon":{"prefix":"https:\/\/ss3.4sqi.net\/img\/categories_v2\/food\/deli_","suffix":".png"},"primary":true}],"photos":{"count":0,"groups":[]}},"referralId":"e-3-4f77166de4b0b9643a05b4a3-43"},{"reasons":{"count":0,"items":[{"summary":"This spot is popular","type":"general","reasonName":"globalInteractionReason"}]},"venue":{"id":"4b9bea97f964a520783536e3","name":"Krispy Kreme Doughnuts","location":{"address":"2128 W Brandon Blvd","crossStreet":"at Gornto Lake Rd.","lat":27.93839985217044,"lng":-82.31946610055672,"labeledLatLngs":[{"label":"display","lat":27.93839985217044,"lng":-82.31946610055672}],"distance":3299,"postalCode":"33511","cc":"US","city":"Brandon","state":"FL","country":"United States","formattedAddress":["2128 W Brandon Blvd (at Gornto Lake Rd.)","Brandon, FL 33511","United States"]},"categories":[{"id":"4bf58dd8d48988d148941735","name":"Donut Shop","pluralName":"Donut Shops","shortName":"Donuts","icon":{"prefix":"https:\/\/ss3.4sqi.net\/img\/categories_v2\/food\/donuts_","suffix":".png"},"primary":true}],"photos":{"count":0,"groups":[]}},"referralId":"e-3-4b9bea97f964a520783536e3-44"},{"reasons":{"count":0,"items":[{"summary":"This spot is popular","type":"general","reasonName":"globalInteractionReason"}]},"venue":{"id":"4b6b4ec0f964a520c1ff2be3","name":"Jasmine Thai","location":{"address":"1947 W Lumsden Rd","crossStreet":"Providence","lat":27.921471014587485,"lng":-82.31703036012115,"labeledLatLngs":[{"label":"display","lat":27.921471014587485,"lng":-82.31703036012115}],"distance":3558,"postalCode":"33511","cc":"US","city":"Brandon","state":"FL","country":"United States","formattedAddress":["1947 W Lumsden Rd (Providence)","Brandon, FL 33511","United States"]},"categories":[{"id":"4bf58dd8d48988d149941735","name":"Thai Restaurant","pluralName":"Thai Restaurants","shortName":"Thai","icon":{"prefix":"https:\/\/ss3.4sqi.net\/img\/categories_v2\/food\/thai_","suffix":".png"},"primary":true}],"photos":{"count":0,"groups":[]}},"referralId":"e-3-4b6b4ec0f964a520c1ff2be3-45"},{"reasons":{"count":0,"items":[{"summary":"This spot is popular","type":"general","reasonName":"globalInteractionReason"}]},"venue":{"id":"4c10362b3708d13ad411615b","name":"Della's After Dark","location":{"address":"608 Oakfield Dr","crossStreet":"Kings Ave","lat":27.93433042644776,"lng":-82.29206976962956,"labeledLatLngs":[{"label":"display","lat":27.93433042644776,"lng":-82.29206976962956}],"distance":717,"postalCode":"33511","cc":"US","city":"Brandon","state":"FL","country":"United States","formattedAddress":["608 Oakfield Dr (Kings Ave)","Brandon, FL 33511","United States"]},"categories":[{"id":"4bf58dd8d48988d157941735","name":"New American Restaurant","pluralName":"New American Restaurants","shortName":"New American","icon":{"prefix":"https:\/\/ss3.4sqi.net\/img\/categories_v2\/food\/newamerican_","suffix":".png"},"primary":true}],"photos":{"count":0,"groups":[]},"venuePage":{"id":"57049958"}},"referralId":"e-3-4c10362b3708d13ad411615b-46"},{"reasons":{"count":0,"items":[{"summary":"This spot is popular","type":"general","reasonName":"globalInteractionReason"}]},"venue":{"id":"59f2016a50a6f06444c0da31","name":"P.F. Chang's","location":{"address":"827 Brandon Town Center Mall","lat":27.9321176,"lng":-82.3266678,"labeledLatLngs":[{"label":"display","lat":27.9321176,"lng":-82.3266678}],"distance":4056,"postalCode":"33511","cc":"US","city":"Brandon","state":"FL","country":"United States","formattedAddress":["827 Brandon Town Center Mall","Brandon, FL 33511","United States"]},"categories":[{"id":"4bf58dd8d48988d145941735","name":"Chinese Restaurant","pluralName":"Chinese Restaurants","shortName":"Chinese","icon":{"prefix":"https:\/\/ss3.4sqi.net\/img\/categories_v2\/food\/asian_","suffix":".png"},"primary":true}],"delivery":{"id":"662867","url":"https:\/\/www.grubhub.com\/restaurant\/pf-changs-827-brandon-town-center-mall-brandon\/662867?affiliate=1131&utm_source=foursquare-affiliate-network&utm_medium=affiliate&utm_campaign=1131&utm_content=662867","provider":{"name":"grubhub","icon":{"prefix":"https:\/\/fastly.4sqi.net\/img\/general\/cap\/","sizes":[40,50],"name":"\/delivery_provider_grubhub_20180129.png"}}},"photos":{"count":0,"groups":[]}},"referralId":"e-3-59f2016a50a6f06444c0da31-47"},{"reasons":{"count":0,"items":[{"summary":"This spot is popular","type":"general","reasonName":"globalInteractionReason"}]},"venue":{"id":"4b4a5b0ef964a520098526e3","name":"Panera Bread","location":{"address":"504 Brandon Town Center Mall","lat":27.9318514,"lng":-82.3261403,"labeledLatLngs":[{"label":"display","lat":27.9318514,"lng":-82.3261403}],"distance":4010,"postalCode":"33511","cc":"US","city":"Brandon","state":"FL","country":"United States","formattedAddress":["504 Brandon Town Center Mall","Brandon, FL 33511","United States"]},"categories":[{"id":"4bf58dd8d48988d16a941735","name":"Bakery","pluralName":"Bakeries","shortName":"Bakery","icon":{"prefix":"https:\/\/ss3.4sqi.net\/img\/categories_v2\/food\/bakery_","suffix":".png"},"primary":true}],"photos":{"count":0,"groups":[]}},"referralId":"e-3-4b4a5b0ef964a520098526e3-48"},{"reasons":{"count":0,"items":[{"summary":"This spot is popular","type":"general","reasonName":"globalInteractionReason"}]},"venue":{"id":"4b82d509f964a520e7e730e3","name":"Firehouse Subs","location":{"address":"1921 W Brandon Blvd","lat":27.93685,"lng":-82.315056,"labeledLatLngs":[{"label":"display","lat":27.93685,"lng":-82.315056}],"distance":2866,"postalCode":"33511","cc":"US","city":"Brandon","state":"FL","country":"United States","formattedAddress":["1921 W Brandon Blvd","Brandon, FL 33511","United States"]},"categories":[{"id":"4bf58dd8d48988d1c5941735","name":"Sandwich Place","pluralName":"Sandwich Places","shortName":"Sandwiches","icon":{"prefix":"https:\/\/ss3.4sqi.net\/img\/categories_v2\/food\/deli_","suffix":".png"},"primary":true}],"delivery":{"id":"824388","url":"https:\/\/www.grubhub.com\/restaurant\/firehouse-subs-157-1921-w-brandon-blvd-brandon\/824388?affiliate=1131&utm_source=foursquare-affiliate-network&utm_medium=affiliate&utm_campaign=1131&utm_content=824388","provider":{"name":"grubhub","icon":{"prefix":"https:\/\/fastly.4sqi.net\/img\/general\/cap\/","sizes":[40,50],"name":"\/delivery_provider_grubhub_20180129.png"}}},"photos":{"count":0,"groups":[]}},"referralId":"e-3-4b82d509f964a520e7e730e3-49"},{"reasons":{"count":0,"items":[{"summary":"This spot is popular","type":"general","reasonName":"globalInteractionReason"}]},"venue":{"id":"4d629262b6b9a1cd16e29351","name":"Della's","location":{"address":"608 Oakfield Dr","lat":27.93450835819368,"lng":-82.29204997113446,"labeledLatLngs":[{"label":"display","lat":27.93450835819368,"lng":-82.29204997113446}],"distance":705,"postalCode":"33511","cc":"US","city":"Brandon","state":"FL","country":"United States","formattedAddress":["608 Oakfield Dr","Brandon, FL 33511","United States"]},"categories":[{"id":"4bf58dd8d48988d14e941735","name":"American Restaurant","pluralName":"American Restaurants","shortName":"American","icon":{"prefix":"https:\/\/ss3.4sqi.net\/img\/categories_v2\/food\/default_","suffix":".png"},"primary":true}],"photos":{"count":0,"groups":[]}},"referralId":"e-3-4d629262b6b9a1cd16e29351-50"},{"reasons":{"count":0,"items":[{"summary":"This spot is popular","type":"general","reasonName":"globalInteractionReason"}]},"venue":{"id":"5023ffe7e4b09c2bc13aa810","name":"Bahama Breeze","location":{"address":"805 Brandon Town Center Mall","lat":27.931901723528533,"lng":-82.32694712949248,"labeledLatLngs":[{"label":"display","lat":27.931901723528533,"lng":-82.32694712949248}],"distance":4087,"postalCode":"33511","cc":"US","city":"Brandon","state":"FL","country":"United States","formattedAddress":["805 Brandon Town Center Mall","Brandon, FL 33511","United States"]},"categories":[{"id":"4bf58dd8d48988d144941735","name":"Caribbean Restaurant","pluralName":"Caribbean Restaurants","shortName":"Caribbean","icon":{"prefix":"https:\/\/ss3.4sqi.net\/img\/categories_v2\/food\/caribbean_","suffix":".png"},"primary":true}],"photos":{"count":0,"groups":[]}},"referralId":"e-3-5023ffe7e4b09c2bc13aa810-51"},{"reasons":{"count":0,"items":[{"summary":"This spot is popular","type":"general","reasonName":"globalInteractionReason"}]},"venue":{"id":"4b4741b2f964a520b32d26e3","name":"Mellow Mushroom","location":{"address":"10959 Causeway Blvd","lat":27.922355,"lng":-82.328635,"labeledLatLngs":[{"label":"display","lat":27.922355,"lng":-82.328635}],"distance":4538,"postalCode":"33511","cc":"US","city":"Brandon","state":"FL","country":"United States","formattedAddress":["10959 Causeway Blvd","Brandon, FL 33511","United States"]},"categories":[{"id":"4bf58dd8d48988d1ca941735","name":"Pizza Place","pluralName":"Pizza Places","shortName":"Pizza","icon":{"prefix":"https:\/\/ss3.4sqi.net\/img\/categories_v2\/food\/pizza_","suffix":".png"},"primary":true}],"photos":{"count":0,"groups":[]}},"referralId":"e-3-4b4741b2f964a520b32d26e3-52"},{"reasons":{"count":0,"items":[{"summary":"This spot is popular","type":"general","reasonName":"globalInteractionReason"}]},"venue":{"id":"51797110e4b0c03ef1311df9","name":"Chicken And Taco Loco","location":{"address":"105 S Parsons Ave","lat":27.93736670743173,"lng":-82.28591697976157,"labeledLatLngs":[{"label":"display","lat":27.93736670743173,"lng":-82.28591697976157}],"distance":48,"postalCode":"33511","cc":"US","city":"Brandon","state":"FL","country":"United States","formattedAddress":["105 S Parsons Ave","Brandon, FL 33511","United States"]},"categories":[{"id":"4bf58dd8d48988d1c1941735","name":"Mexican Restaurant","pluralName":"Mexican Restaurants","shortName":"Mexican","icon":{"prefix":"https:\/\/ss3.4sqi.net\/img\/categories_v2\/food\/mexican_","suffix":".png"},"primary":true}],"photos":{"count":0,"groups":[]}},"referralId":"e-3-51797110e4b0c03ef1311df9-53"},{"reasons":{"count":0,"items":[{"summary":"This spot is popular","type":"general","reasonName":"globalInteractionReason"}]},"venue":{"id":"4fe5dc01e4b0227203fd531d","name":"Square 1 Burgers","location":{"address":"2042 Badlands Dr","lat":27.926715239727297,"lng":-82.3156185556002,"labeledLatLngs":[{"label":"display","lat":27.926715239727297,"lng":-82.3156185556002}],"distance":3170,"postalCode":"33511","cc":"US","city":"Brandon","state":"FL","country":"United States","formattedAddress":["2042 Badlands Dr","Brandon, FL 33511","United States"]},"categories":[{"id":"4bf58dd8d48988d16c941735","name":"Burger Joint","pluralName":"Burger Joints","shortName":"Burgers","icon":{"prefix":"https:\/\/ss3.4sqi.net\/img\/categories_v2\/food\/burger_","suffix":".png"},"primary":true}],"photos":{"count":0,"groups":[]},"venuePage":{"id":"38537911"}},"referralId":"e-3-4fe5dc01e4b0227203fd531d-54"},{"reasons":{"count":0,"items":[{"summary":"This spot is popular","type":"general","reasonName":"globalInteractionReason"}]},"venue":{"id":"4b09a0acf964a520981a23e3","name":"Buffalo Wild Wings","location":{"address":"2055 Badlands Dr","crossStreet":"at Brandon Pkwy.","lat":27.927490706724,"lng":-82.31709390878677,"labeledLatLngs":[{"label":"display","lat":27.927490706724,"lng":-82.31709390878677}],"distance":3273,"postalCode":"33511","cc":"US","city":"Brandon","state":"FL","country":"United States","formattedAddress":["2055 Badlands Dr (at Brandon Pkwy.)","Brandon, FL 33511","United States"]},"categories":[{"id":"4bf58dd8d48988d14c941735","name":"Wings Joint","pluralName":"Wings Joints","shortName":"Wings","icon":{"prefix":"https:\/\/ss3.4sqi.net\/img\/categories_v2\/food\/wings_","suffix":".png"},"primary":true}],"photos":{"count":0,"groups":[]}},"referralId":"e-3-4b09a0acf964a520981a23e3-55"},{"reasons":{"count":0,"items":[{"summary":"This spot is popular","type":"general","reasonName":"globalInteractionReason"}]},"venue":{"id":"4b0586c6f964a520f16d22e3","name":"Olive Garden","location":{"address":"2602 W Brandon Blvd","lat":27.9404268982899,"lng":-82.32468381835507,"labeledLatLngs":[{"label":"display","lat":27.9404268982899,"lng":-82.32468381835507}],"distance":3822,"postalCode":"33511","cc":"US","city":"Brandon","state":"FL","country":"United States","formattedAddress":["2602 W Brandon Blvd","Brandon, FL 33511","United States"]},"categories":[{"id":"4bf58dd8d48988d110941735","name":"Italian Restaurant","pluralName":"Italian Restaurants","shortName":"Italian","icon":{"prefix":"https:\/\/ss3.4sqi.net\/img\/categories_v2\/food\/italian_","suffix":".png"},"primary":true}],"photos":{"count":0,"groups":[]}},"referralId":"e-3-4b0586c6f964a520f16d22e3-56"},{"reasons":{"count":0,"items":[{"summary":"This spot is popular","type":"general","reasonName":"globalInteractionReason"}]},"venue":{"id":"582f856f65e7c7635db41e1f","name":"Mission BBQ","location":{"lat":27.93813626940699,"lng":-82.3065277996662,"labeledLatLngs":[{"label":"display","lat":27.93813626940699,"lng":-82.3065277996662}],"distance":2026,"cc":"US","city":"Riverview","state":"FL","country":"United States","formattedAddress":["Riverview, FL","United States"]},"categories":[{"id":"4bf58dd8d48988d1df931735","name":"BBQ Joint","pluralName":"BBQ Joints","shortName":"BBQ","icon":{"prefix":"https:\/\/ss3.4sqi.net\/img\/categories_v2\/food\/bbqalt_","suffix":".png"},"primary":true}],"photos":{"count":0,"groups":[]}},"referralId":"e-3-582f856f65e7c7635db41e1f-57"},{"reasons":{"count":0,"items":[{"summary":"This spot is popular","type":"general","reasonName":"globalInteractionReason"}]},"venue":{"id":"4b659d21f964a52076f62ae3","name":"New York Diner & Bagel","location":{"address":"2126 Jelane Dr","crossStreet":"Valrico Rd.","lat":27.93836507681856,"lng":-82.25079909580931,"labeledLatLngs":[{"label":"display","lat":27.93836507681856,"lng":-82.25079909580931}],"distance":3455,"postalCode":"33594","cc":"US","city":"Valrico","state":"FL","country":"United States","formattedAddress":["2126 Jelane Dr (Valrico Rd.)","Valrico, FL 33594","United States"]},"categories":[{"id":"4bf58dd8d48988d147941735","name":"Diner","pluralName":"Diners","shortName":"Diner","icon":{"prefix":"https:\/\/ss3.4sqi.net\/img\/categories_v2\/food\/diner_","suffix":".png"},"primary":true}],"photos":{"count":0,"groups":[]}},"referralId":"e-3-4b659d21f964a52076f62ae3-58"},{"reasons":{"count":0,"items":[{"summary":"This spot is popular","type":"general","reasonName":"globalInteractionReason"}]},"venue":{"id":"56c0adb8cd10059b145700d6","name":"Fuzzy's Taco Shop","location":{"address":"2874 Providence Lake Blvd","lat":27.921064,"lng":-82.327721,"labeledLatLngs":[{"label":"display","lat":27.921064,"lng":-82.327721}],"distance":4513,"postalCode":"33511","cc":"US","city":"Brandon","state":"FL","country":"United States","formattedAddress":["2874 Providence Lake Blvd","Brandon, FL 33511","United States"]},"categories":[{"id":"4bf58dd8d48988d1c1941735","name":"Mexican Restaurant","pluralName":"Mexican Restaurants","shortName":"Mexican","icon":{"prefix":"https:\/\/ss3.4sqi.net\/img\/categories_v2\/food\/mexican_","suffix":".png"},"primary":true}],"photos":{"count":0,"groups":[]}},"referralId":"e-3-56c0adb8cd10059b145700d6-59"},{"reasons":{"count":0,"items":[{"summary":"This spot is popular","type":"general","reasonName":"globalInteractionReason"}]},"venue":{"id":"4c794d983badb1f71e8d4e54","name":"Tijuana Flats","location":{"address":"11007 Causeway Boulevard","lat":27.9228953,"lng":-82.3278526,"labeledLatLngs":[{"label":"display","lat":27.9228953,"lng":-82.3278526}],"distance":4445,"postalCode":"33511","cc":"US","city":"Brandon","state":"FL","country":"United States","formattedAddress":["11007 Causeway Boulevard","Brandon, FL 33511","United States"]},"categories":[{"id":"4bf58dd8d48988d1c4941735","name":"Restaurant","pluralName":"Restaurants","shortName":"Restaurant","icon":{"prefix":"https:\/\/ss3.4sqi.net\/img\/categories_v2\/food\/default_","suffix":".png"},"primary":true}],"photos":{"count":0,"groups":[]}},"referralId":"e-3-4c794d983badb1f71e8d4e54-60"},{"reasons":{"count":0,"items":[{"summary":"This spot is popular","type":"general","reasonName":"globalInteractionReason"}]},"venue":{"id":"4bc49ad374a9a593630ad6f6","name":"Jersey Mike's Subs","location":{"address":"10951 Causeway Blvd","lat":27.922309,"lng":-82.32898,"labeledLatLngs":[{"label":"display","lat":27.922309,"lng":-82.32898}],"distance":4572,"postalCode":"33511-1997","cc":"US","city":"Brandon","state":"FL","country":"United States","formattedAddress":["10951 Causeway Blvd","Brandon, FL 33511-1997","United States"]},"categories":[{"id":"4bf58dd8d48988d1c5941735","name":"Sandwich Place","pluralName":"Sandwich Places","shortName":"Sandwiches","icon":{"prefix":"https:\/\/ss3.4sqi.net\/img\/categories_v2\/food\/deli_","suffix":".png"},"primary":true}],"delivery":{"id":"553356","url":"https:\/\/www.grubhub.com\/restaurant\/jersey-mikes-subs-10951-causeway-blvd-brandon\/553356?affiliate=1131&utm_source=foursquare-affiliate-network&utm_medium=affiliate&utm_campaign=1131&utm_content=553356","provider":{"name":"grubhub","icon":{"prefix":"https:\/\/fastly.4sqi.net\/img\/general\/cap\/","sizes":[40,50],"name":"\/delivery_provider_grubhub_20180129.png"}}},"photos":{"count":0,"groups":[]}},"referralId":"e-3-4bc49ad374a9a593630ad6f6-61"},{"reasons":{"count":0,"items":[{"summary":"This spot is popular","type":"general","reasonName":"globalInteractionReason"}]},"venue":{"id":"50733210e4121c28e8c388d3","name":"Red Robin Gourmet Burgers and Brews","location":{"address":"450 Brandon Town Center Mall","lat":27.93212454145886,"lng":-82.32629446160647,"labeledLatLngs":[{"label":"display","lat":27.93212454145886,"lng":-82.32629446160647}],"distance":4020,"postalCode":"33511","cc":"US","city":"Brandon","state":"FL","country":"United States","formattedAddress":["450 Brandon Town Center Mall","Brandon, FL 33511","United States"]},"categories":[{"id":"4bf58dd8d48988d16c941735","name":"Burger Joint","pluralName":"Burger Joints","shortName":"Burgers","icon":{"prefix":"https:\/\/ss3.4sqi.net\/img\/categories_v2\/food\/burger_","suffix":".png"},"primary":true}],"delivery":{"id":"383278","url":"https:\/\/www.grubhub.com\/restaurant\/red-robin-450-brandon-town-center-mall-brandon\/383278?affiliate=1131&utm_source=foursquare-affiliate-network&utm_medium=affiliate&utm_campaign=1131&utm_content=383278","provider":{"name":"grubhub","icon":{"prefix":"https:\/\/fastly.4sqi.net\/img\/general\/cap\/","sizes":[40,50],"name":"\/delivery_provider_grubhub_20180129.png"}}},"photos":{"count":0,"groups":[]}},"referralId":"e-3-50733210e4121c28e8c388d3-62"},{"reasons":{"count":0,"items":[{"summary":"This spot is popular","type":"general","reasonName":"globalInteractionReason"}]},"venue":{"id":"4b5e2228f964a520767f29e3","name":"Crispers Fresh Salads, Soups and Sandwiches","location":{"address":"11019 Causeway Blvd","lat":27.922441503356968,"lng":-82.32751395693442,"labeledLatLngs":[{"label":"display","lat":27.922441503356968,"lng":-82.32751395693442}],"distance":4433,"postalCode":"33511","cc":"US","city":"Brandon","state":"FL","country":"United States","formattedAddress":["11019 Causeway Blvd","Brandon, FL 33511","United States"]},"categories":[{"id":"4bf58dd8d48988d1bd941735","name":"Salad Place","pluralName":"Salad Places","shortName":"Salad","icon":{"prefix":"https:\/\/ss3.4sqi.net\/img\/categories_v2\/food\/salad_","suffix":".png"},"primary":true}],"photos":{"count":0,"groups":[]}},"referralId":"e-3-4b5e2228f964a520767f29e3-63"},{"reasons":{"count":0,"items":[{"summary":"This spot is popular","type":"general","reasonName":"globalInteractionReason"}]},"venue":{"id":"4e7b9e9cb9936323aac3d778","name":"Westfield Brandon Mall Food Court","location":{"address":"459 Brandon Town Center Mall","lat":27.932359697480933,"lng":-82.32531325021066,"labeledLatLngs":[{"label":"display","lat":27.932359697480933,"lng":-82.32531325021066}],"distance":3920,"cc":"US","state":"Florida","country":"United States","formattedAddress":["459 Brandon Town Center Mall","Florida","United States"]},"categories":[{"id":"4bf58dd8d48988d120951735","name":"Food Court","pluralName":"Food Courts","shortName":"Food Court","icon":{"prefix":"https:\/\/ss3.4sqi.net\/img\/categories_v2\/shops\/food_foodcourt_","suffix":".png"},"primary":true}],"photos":{"count":0,"groups":[]}},"referralId":"e-3-4e7b9e9cb9936323aac3d778-64"},{"reasons":{"count":0,"items":[{"summary":"This spot is popular","type":"general","reasonName":"globalInteractionReason"}]},"venue":{"id":"4bac137df964a5208be23ae3","name":"Checker's","location":{"address":"1520 W Brandon Blvd","lat":27.938309260791232,"lng":-82.30749236441801,"labeledLatLngs":[{"label":"display","lat":27.938309260791232,"lng":-82.30749236441801}],"distance":2121,"postalCode":"33511","cc":"US","city":"Brandon","state":"FL","country":"United States","formattedAddress":["1520 W Brandon Blvd","Brandon, FL 33511","United States"]},"categories":[{"id":"4bf58dd8d48988d16e941735","name":"Fast Food Restaurant","pluralName":"Fast Food Restaurants","shortName":"Fast Food","icon":{"prefix":"https:\/\/ss3.4sqi.net\/img\/categories_v2\/food\/fastfood_","suffix":".png"},"primary":true}],"photos":{"count":0,"groups":[]}},"referralId":"e-3-4bac137df964a5208be23ae3-65"},{"reasons":{"count":0,"items":[{"summary":"This spot is popular","type":"general","reasonName":"globalInteractionReason"}]},"venue":{"id":"5589ad51498e0228598bc82a","name":"Ford's Garage","location":{"address":"11105 Causeway Blvd","lat":27.92255889815473,"lng":-82.32625045697205,"labeledLatLngs":[{"label":"display","lat":27.92255889815473,"lng":-82.32625045697205}],"distance":4313,"postalCode":"33511","cc":"US","city":"Brandon","state":"FL","country":"United States","formattedAddress":["11105 Causeway Blvd","Brandon, FL 33511","United States"]},"categories":[{"id":"4bf58dd8d48988d16c941735","name":"Burger Joint","pluralName":"Burger Joints","shortName":"Burgers","icon":{"prefix":"https:\/\/ss3.4sqi.net\/img\/categories_v2\/food\/burger_","suffix":".png"},"primary":true}],"photos":{"count":0,"groups":[]}},"referralId":"e-3-5589ad51498e0228598bc82a-66"},{"reasons":{"count":0,"items":[{"summary":"This spot is popular","type":"general","reasonName":"globalInteractionReason"}]},"venue":{"id":"4e5bdcc61495a891129e3836","name":"Chipotle Mexican Grill","location":{"address":"829 E Bloomingdale Ave","crossStreet":"Bloomingdale Ave; just west of Bell Shoals Rd","lat":27.89315296173319,"lng":-82.27232598834325,"labeledLatLngs":[{"label":"display","lat":27.89315296173319,"lng":-82.27232598834325}],"distance":5147,"postalCode":"33511","cc":"US","city":"Brandon","state":"FL","country":"United States","formattedAddress":["829 E Bloomingdale Ave (Bloomingdale Ave; just west of Bell Shoals Rd)","Brandon, FL 33511","United States"]},"categories":[{"id":"4bf58dd8d48988d1c1941735","name":"Mexican Restaurant","pluralName":"Mexican Restaurants","shortName":"Mexican","icon":{"prefix":"https:\/\/ss3.4sqi.net\/img\/categories_v2\/food\/mexican_","suffix":".png"},"primary":true}],"photos":{"count":0,"groups":[]}},"referralId":"e-3-4e5bdcc61495a891129e3836-67"},{"reasons":{"count":0,"items":[{"summary":"This spot is popular","type":"general","reasonName":"globalInteractionReason"}]},"venue":{"id":"4bdb262b2a3a0f4707a6adb6","name":"First Choice BBQ","location":{"address":"10113 E Adamo Dr","lat":27.94215775669586,"lng":-82.33988045722454,"labeledLatLngs":[{"label":"display","lat":27.94215775669586,"lng":-82.33988045722454}],"distance":5328,"postalCode":"33619","cc":"US","city":"Tampa","state":"FL","country":"United States","formattedAddress":["10113 E Adamo Dr","Tampa, FL 33619","United States"]},"categories":[{"id":"4bf58dd8d48988d1df931735","name":"BBQ Joint","pluralName":"BBQ Joints","shortName":"BBQ","icon":{"prefix":"https:\/\/ss3.4sqi.net\/img\/categories_v2\/food\/bbqalt_","suffix":".png"},"primary":true}],"delivery":{"id":"653321","url":"https:\/\/www.grubhub.com\/restaurant\/first-choice-bar-b-que-10113-adamo-dr-tampa\/653321?affiliate=1131&utm_source=foursquare-affiliate-network&utm_medium=affiliate&utm_campaign=1131&utm_content=653321","provider":{"name":"grubhub","icon":{"prefix":"https:\/\/fastly.4sqi.net\/img\/general\/cap\/","sizes":[40,50],"name":"\/delivery_provider_grubhub_20180129.png"}}},"photos":{"count":0,"groups":[]}},"referralId":"e-3-4bdb262b2a3a0f4707a6adb6-68"},{"reasons":{"count":0,"items":[{"summary":"This spot is popular","type":"general","reasonName":"globalInteractionReason"}]},"venue":{"id":"51bf1d85498edb2f3596b1a7","name":"First Watch","location":{"address":"11305 Causeway Blvd.","lat":27.922699,"lng":-82.322378,"labeledLatLngs":[{"label":"display","lat":27.922699,"lng":-82.322378}],"distance":3959,"postalCode":"33511","cc":"US","city":"Brandon","state":"FL","country":"United States","formattedAddress":["11305 Causeway Blvd.","Brandon, FL 33511","United States"]},"categories":[{"id":"4bf58dd8d48988d143941735","name":"Breakfast Spot","pluralName":"Breakfast Spots","shortName":"Breakfast","icon":{"prefix":"https:\/\/ss3.4sqi.net\/img\/categories_v2\/food\/breakfast_","suffix":".png"},"primary":true}],"photos":{"count":0,"groups":[]}},"referralId":"e-3-51bf1d85498edb2f3596b1a7-69"},{"reasons":{"count":0,"items":[{"summary":"This spot is popular","type":"general","reasonName":"globalInteractionReason"}]},"venue":{"id":"5349dfe5498e8c4e3725cc20","name":"Chipotle Mexican Grill","location":{"address":"103 Brandon Town Center Dr","crossStreet":"W Brandon Blvd & Brandon Town Ctr Dr","lat":27.938747769594823,"lng":-82.32362885613423,"labeledLatLngs":[{"label":"display","lat":27.938747769594823,"lng":-82.32362885613423}],"distance":3709,"postalCode":"33511","cc":"US","city":"Brandon","state":"FL","country":"United States","formattedAddress":["103 Brandon Town Center Dr (W Brandon Blvd & Brandon Town Ctr Dr)","Brandon, FL 33511","United States"]},"categories":[{"id":"4bf58dd8d48988d1c1941735","name":"Mexican Restaurant","pluralName":"Mexican Restaurants","shortName":"Mexican","icon":{"prefix":"https:\/\/ss3.4sqi.net\/img\/categories_v2\/food\/mexican_","suffix":".png"},"primary":true}],"photos":{"count":0,"groups":[]}},"referralId":"e-3-5349dfe5498e8c4e3725cc20-70"},{"reasons":{"count":0,"items":[{"summary":"This spot is popular","type":"general","reasonName":"globalInteractionReason"}]},"venue":{"id":"52ec3c0e498ed778f72ba84c","name":"Shrimp Boat","location":{"address":"716 W Lumsden Rd","lat":27.894012158187792,"lng":-82.26818065606557,"labeledLatLngs":[{"label":"display","lat":27.894012158187792,"lng":-82.26818065606557}],"distance":5177,"postalCode":"33511","cc":"US","city":"Brandon","state":"FL","country":"United States","formattedAddress":["716 W Lumsden Rd","Brandon, FL 33511","United States"]},"categories":[{"id":"4bf58dd8d48988d1ce941735","name":"Seafood Restaurant","pluralName":"Seafood Restaurants","shortName":"Seafood","icon":{"prefix":"https:\/\/ss3.4sqi.net\/img\/categories_v2\/food\/seafood_","suffix":".png"},"primary":true}],"photos":{"count":0,"groups":[]}},"referralId":"e-3-52ec3c0e498ed778f72ba84c-71"},{"reasons":{"count":0,"items":[{"summary":"This spot is popular","type":"general","reasonName":"globalInteractionReason"}]},"venue":{"id":"4c615587b6f3be9a2f616173","name":"Tropical Smoothie Cafe","location":{"address":"11011 Causeway Blvd","lat":27.922429,"lng":-82.328096,"labeledLatLngs":[{"label":"display","lat":27.922429,"lng":-82.328096}],"distance":4486,"postalCode":"33511","cc":"US","city":"Brandon","state":"FL","country":"United States","formattedAddress":["11011 Causeway Blvd","Brandon, FL 33511","United States"]},"categories":[{"id":"4bf58dd8d48988d16d941735","name":"Caf","pluralName":"Cafs","shortName":"Caf","icon":{"prefix":"https:\/\/ss3.4sqi.net\/img\/categories_v2\/food\/cafe_","suffix":".png"},"primary":true}],"photos":{"count":0,"groups":[]}},"referralId":"e-3-4c615587b6f3be9a2f616173-72"},{"reasons":{"count":0,"items":[{"summary":"This spot is popular","type":"general","reasonName":"globalInteractionReason"}]},"venue":{"id":"4be6eed1cf200f477f05153c","name":"Tropical Smoothie Cafe","location":{"address":"2330 W Brandon Blvd","crossStreet":"Regency Square","lat":27.939762,"lng":-82.322338,"labeledLatLngs":[{"label":"display","lat":27.939762,"lng":-82.322338}],"distance":3587,"postalCode":"33511","cc":"US","city":"Brandon","state":"FL","country":"United States","formattedAddress":["2330 W Brandon Blvd (Regency Square)","Brandon, FL 33511","United States"]},"categories":[{"id":"4bf58dd8d48988d16d941735","name":"Caf","pluralName":"Cafs","shortName":"Caf","icon":{"prefix":"https:\/\/ss3.4sqi.net\/img\/categories_v2\/food\/cafe_","suffix":".png"},"primary":true}],"photos":{"count":0,"groups":[]}},"referralId":"e-3-4be6eed1cf200f477f05153c-73"},{"reasons":{"count":0,"items":[{"summary":"This spot is popular","type":"general","reasonName":"globalInteractionReason"}]},"venue":{"id":"4c4b691bf7cc1b8d640ad73f","name":"Willies: The Place for Seafood","location":{"address":"1912 Main St","lat":27.94649099055775,"lng":-82.2570856664167,"labeledLatLngs":[{"label":"display","lat":27.94649099055775,"lng":-82.2570856664167}],"distance":2996,"postalCode":"33594","cc":"US","city":"Valrico","state":"FL","country":"United States","formattedAddress":["1912 Main St","Valrico, FL 33594","United States"]},"categories":[{"id":"4bf58dd8d48988d1ce941735","name":"Seafood Restaurant","pluralName":"Seafood Restaurants","shortName":"Seafood","icon":{"prefix":"https:\/\/ss3.4sqi.net\/img\/categories_v2\/food\/seafood_","suffix":".png"},"primary":true}],"photos":{"count":0,"groups":[]},"venuePage":{"id":"197871894"}},"referralId":"e-3-4c4b691bf7cc1b8d640ad73f-74"},{"reasons":{"count":0,"items":[{"summary":"This spot is popular","type":"general","reasonName":"globalInteractionReason"}]},"venue":{"id":"53f7e1b2498eacc7b0e87f9f","name":"Koizi Endless Habachi & Sushi - Brandon","location":{"lat":27.92161041380917,"lng":-82.32425134111907,"labeledLatLngs":[{"label":"display","lat":27.92161041380917,"lng":-82.32425134111907}],"distance":4178,"cc":"US","city":"Riverview","state":"FL","country":"United States","formattedAddress":["Riverview, FL","United States"]},"categories":[{"id":"4bf58dd8d48988d1d2941735","name":"Sushi Restaurant","pluralName":"Sushi Restaurants","shortName":"Sushi","icon":{"prefix":"https:\/\/ss3.4sqi.net\/img\/categories_v2\/food\/sushi_","suffix":".png"},"primary":true}],"photos":{"count":0,"groups":[]}},"referralId":"e-3-53f7e1b2498eacc7b0e87f9f-75"},{"reasons":{"count":0,"items":[{"summary":"This spot is popular","type":"general","reasonName":"globalInteractionReason"}]},"venue":{"id":"53641855498ea50e944e2078","name":"Jersey Mike's Subs","location":{"address":"1248 E Brandon Blvd","lat":27.938284,"lng":-82.26391,"labeledLatLngs":[{"label":"display","lat":27.938284,"lng":-82.26391}],"distance":2165,"postalCode":"33511-5529","cc":"US","city":"Brandon","state":"FL","country":"United States","formattedAddress":["1248 E Brandon Blvd","Brandon, FL 33511-5529","United States"]},"categories":[{"id":"4bf58dd8d48988d1c5941735","name":"Sandwich Place","pluralName":"Sandwich Places","shortName":"Sandwiches","icon":{"prefix":"https:\/\/ss3.4sqi.net\/img\/categories_v2\/food\/deli_","suffix":".png"},"primary":true}],"photos":{"count":0,"groups":[]}},"referralId":"e-3-53641855498ea50e944e2078-76"},{"reasons":{"count":0,"items":[{"summary":"This spot is popular","type":"general","reasonName":"globalInteractionReason"}]},"venue":{"id":"4b6c51d9f964a5206a302ce3","name":"Sushi Ninja","location":{"address":"887 E Bloomingdale Ave","lat":27.891417400577993,"lng":-82.2720330392706,"labeledLatLngs":[{"label":"display","lat":27.891417400577993,"lng":-82.2720330392706}],"distance":5341,"postalCode":"33511","cc":"US","city":"Brandon","state":"FL","country":"United States","formattedAddress":["887 E Bloomingdale Ave","Brandon, FL 33511","United States"]},"categories":[{"id":"4bf58dd8d48988d1d2941735","name":"Sushi Restaurant","pluralName":"Sushi Restaurants","shortName":"Sushi","icon":{"prefix":"https:\/\/ss3.4sqi.net\/img\/categories_v2\/food\/sushi_","suffix":".png"},"primary":true}],"photos":{"count":0,"groups":[]}},"referralId":"e-3-4b6c51d9f964a5206a302ce3-77"},{"reasons":{"count":0,"items":[{"summary":"This spot is popular","type":"general","reasonName":"globalInteractionReason"}]},"venue":{"id":"4b74366cf964a52072cd2de3","name":"Village Inn","location":{"address":"1995 W Lumsden Rd","lat":27.921035,"lng":-82.318179,"labeledLatLngs":[{"label":"display","lat":27.921035,"lng":-82.318179}],"distance":3680,"postalCode":"33511","cc":"US","city":"Brandon","state":"FL","country":"United States","formattedAddress":["1995 W Lumsden Rd","Brandon, FL 33511","United States"]},"categories":[{"id":"4bf58dd8d48988d147941735","name":"Diner","pluralName":"Diners","shortName":"Diner","icon":{"prefix":"https:\/\/ss3.4sqi.net\/img\/categories_v2\/food\/diner_","suffix":".png"},"primary":true}],"photos":{"count":0,"groups":[]}},"referralId":"e-3-4b74366cf964a52072cd2de3-78"},{"reasons":{"count":0,"items":[{"summary":"This spot is popular","type":"general","reasonName":"globalInteractionReason"}]},"venue":{"id":"4ba3a4ebf964a520574f38e3","name":"Moe's Southwest Grill","location":{"address":"2338 West Brandon Blvd","crossStreet":"US Hwy 60","lat":27.93989034272952,"lng":-82.32240444549724,"labeledLatLngs":[{"label":"display","lat":27.93989034272952,"lng":-82.32240444549724}],"distance":3595,"postalCode":"33511","cc":"US","city":"Brandon","state":"FL","country":"United States","formattedAddress":["2338 West Brandon Blvd (US Hwy 60)","Brandon, FL 33511","United States"]},"categories":[{"id":"4bf58dd8d48988d1c1941735","name":"Mexican Restaurant","pluralName":"Mexican Restaurants","shortName":"Mexican","icon":{"prefix":"https:\/\/ss3.4sqi.net\/img\/categories_v2\/food\/mexican_","suffix":".png"},"primary":true}],"photos":{"count":0,"groups":[]}},"referralId":"e-3-4ba3a4ebf964a520574f38e3-79"},{"reasons":{"count":0,"items":[{"summary":"This spot is popular","type":"general","reasonName":"globalInteractionReason"}]},"venue":{"id":"4b301a30f964a5201bf624e3","name":"Stonewood Grille & Tavern","location":{"address":"612 E Bloomingdale Ave","lat":27.893694712745464,"lng":-82.27364872169981,"labeledLatLngs":[{"label":"display","lat":27.893694712745464,"lng":-82.27364872169981}],"distance":5056,"postalCode":"33511","cc":"US","city":"Brandon","state":"FL","country":"United States","formattedAddress":["612 E Bloomingdale Ave","Brandon, FL 33511","United States"]},"categories":[{"id":"4bf58dd8d48988d1cc941735","name":"Steakhouse","pluralName":"Steakhouses","shortName":"Steakhouse","icon":{"prefix":"https:\/\/ss3.4sqi.net\/img\/categories_v2\/food\/steakhouse_","suffix":".png"},"primary":true}],"photos":{"count":0,"groups":[]}},"referralId":"e-3-4b301a30f964a5201bf624e3-80"},{"reasons":{"count":0,"items":[{"summary":"This spot is popular","type":"general","reasonName":"globalInteractionReason"}]},"venue":{"id":"4b317741f964a5206a0725e3","name":"Five Guys","location":{"address":"6022 Winthrop Town Centre Avenue","lat":27.893210437724314,"lng":-82.31671130578684,"labeledLatLngs":[{"label":"display","lat":27.893210437724314,"lng":-82.31671130578684}],"distance":5814,"postalCode":"33578","cc":"US","city":"Riverview","state":"FL","country":"United States","formattedAddress":["6022 Winthrop Town Centre Avenue","Riverview, FL 33578","United States"]},"categories":[{"id":"4bf58dd8d48988d16c941735","name":"Burger Joint","pluralName":"Burger Joints","shortName":"Burgers","icon":{"prefix":"https:\/\/ss3.4sqi.net\/img\/categories_v2\/food\/burger_","suffix":".png"},"primary":true}],"photos":{"count":0,"groups":[]}},"referralId":"e-3-4b317741f964a5206a0725e3-81"},{"reasons":{"count":0,"items":[{"summary":"This spot is popular","type":"general","reasonName":"globalInteractionReason"}]},"venue":{"id":"4b53b0e7f964a520fca727e3","name":"Smokey Bones BBQ & Grill","location":{"address":"136 Brandon Town Center Dr","lat":27.938426482939533,"lng":-82.3250779152898,"labeledLatLngs":[{"label":"display","lat":27.938426482939533,"lng":-82.3250779152898}],"distance":3851,"postalCode":"33511","cc":"US","city":"Brandon","state":"FL","country":"United States","formattedAddress":["136 Brandon Town Center Dr","Brandon, FL 33511","United States"]},"categories":[{"id":"4bf58dd8d48988d1df931735","name":"BBQ Joint","pluralName":"BBQ Joints","shortName":"BBQ","icon":{"prefix":"https:\/\/ss3.4sqi.net\/img\/categories_v2\/food\/bbqalt_","suffix":".png"},"primary":true}],"photos":{"count":0,"groups":[]}},"referralId":"e-3-4b53b0e7f964a520fca727e3-82"},{"reasons":{"count":0,"items":[{"summary":"This spot is popular","type":"general","reasonName":"globalInteractionReason"}]},"venue":{"id":"4b81c6f8f964a52078bd30e3","name":"Sweet Tomatoes","location":{"address":"10017 E Adamo Dr","lat":27.94394600777902,"lng":-82.3374206228655,"labeledLatLngs":[{"label":"display","lat":27.94394600777902,"lng":-82.3374206228655}],"distance":5110,"postalCode":"33619","cc":"US","city":"Tampa","state":"FL","country":"United States","formattedAddress":["10017 E Adamo Dr","Tampa, FL 33619","United States"]},"categories":[{"id":"4bf58dd8d48988d1bd941735","name":"Salad Place","pluralName":"Salad Places","shortName":"Salad","icon":{"prefix":"https:\/\/ss3.4sqi.net\/img\/categories_v2\/food\/salad_","suffix":".png"},"primary":true}],"photos":{"count":0,"groups":[]}},"referralId":"e-3-4b81c6f8f964a52078bd30e3-83"},{"reasons":{"count":0,"items":[{"summary":"This spot is popular","type":"general","reasonName":"globalInteractionReason"}]},"venue":{"id":"4b184c0ff964a5206ed023e3","name":"Acropolis Greek Taverna","location":{"address":"6108 Grand Winthrop Ave.","lat":27.892673893785965,"lng":-82.31674839345324,"labeledLatLngs":[{"label":"display","lat":27.892673893785965,"lng":-82.31674839345324}],"distance":5867,"postalCode":"33578","cc":"US","city":"Riverview","state":"FL","country":"United States","formattedAddress":["6108 Grand Winthrop Ave.","Riverview, FL 33578","United States"]},"categories":[{"id":"4bf58dd8d48988d10e941735","name":"Greek Restaurant","pluralName":"Greek Restaurants","shortName":"Greek","icon":{"prefix":"https:\/\/ss3.4sqi.net\/img\/categories_v2\/food\/greek_","suffix":".png"},"primary":true}],"photos":{"count":0,"groups":[]},"venuePage":{"id":"51779012"}},"referralId":"e-3-4b184c0ff964a5206ed023e3-84"},{"reasons":{"count":0,"items":[{"summary":"This spot is popular","type":"general","reasonName":"globalInteractionReason"}]},"venue":{"id":"4c36740704cbb713a811ee0d","name":"LongHorn Steakhouse","location":{"address":"11102 Causeway Blvd","crossStreet":"Brandon Town Center Drive","lat":27.923697858022106,"lng":-82.32637067432734,"labeledLatLngs":[{"label":"display","lat":27.923697858022106,"lng":-82.32637067432734}],"distance":4276,"postalCode":"33511","cc":"US","city":"Brandon","state":"FL","country":"United States","formattedAddress":["11102 Causeway Blvd (Brandon Town Center Drive)","Brandon, FL 33511","United States"]},"categories":[{"id":"4bf58dd8d48988d1cc941735","name":"Steakhouse","pluralName":"Steakhouses","shortName":"Steakhouse","icon":{"prefix":"https:\/\/ss3.4sqi.net\/img\/categories_v2\/food\/steakhouse_","suffix":".png"},"primary":true}],"photos":{"count":0,"groups":[]}},"referralId":"e-3-4c36740704cbb713a811ee0d-85"},{"reasons":{"count":0,"items":[{"summary":"This spot is popular","type":"general","reasonName":"globalInteractionReason"}]},"venue":{"id":"4b8a8824f964a520f77032e3","name":"Dunkin'","location":{"address":"950 W Lumsden Rd","lat":27.92383617434938,"lng":-82.29929782974489,"labeledLatLngs":[{"label":"display","lat":27.92383617434938,"lng":-82.29929782974489}],"distance":2036,"postalCode":"33511","cc":"US","city":"Brandon","state":"FL","country":"United States","formattedAddress":["950 W Lumsden Rd","Brandon, FL 33511","United States"]},"categories":[{"id":"4bf58dd8d48988d148941735","name":"Donut Shop","pluralName":"Donut Shops","shortName":"Donuts","icon":{"prefix":"https:\/\/ss3.4sqi.net\/img\/categories_v2\/food\/donuts_","suffix":".png"},"primary":true}],"photos":{"count":0,"groups":[]}},"referralId":"e-3-4b8a8824f964a520f77032e3-86"},{"reasons":{"count":0,"items":[{"summary":"This spot is popular","type":"general","reasonName":"globalInteractionReason"}]},"venue":{"id":"517ac8d1ebcab9172e60ac07","name":"Pollo Tropical","location":{"address":"828 Providence Rd","lat":27.92510906779543,"lng":-82.3172173982869,"labeledLatLngs":[{"label":"display","lat":27.92510906779543,"lng":-82.3172173982869}],"distance":3386,"postalCode":"33511","cc":"US","city":"Brandon","state":"FL","country":"United States","formattedAddress":["828 Providence Rd","Brandon, FL 33511","United States"]},"categories":[{"id":"4bf58dd8d48988d1be941735","name":"Latin American Restaurant","pluralName":"Latin American Restaurants","shortName":"Latin American","icon":{"prefix":"https:\/\/ss3.4sqi.net\/img\/categories_v2\/food\/latinamerican_","suffix":".png"},"primary":true}],"photos":{"count":0,"groups":[]}},"referralId":"e-3-517ac8d1ebcab9172e60ac07-87"},{"reasons":{"count":0,"items":[{"summary":"This spot is popular","type":"general","reasonName":"globalInteractionReason"}]},"venue":{"id":"4c1930c1838020a1a357e561","name":"Chick-fil-A","location":{"address":"519 Brandon Town Center Mall","lat":27.932177,"lng":-82.325247,"labeledLatLngs":[{"label":"display","lat":27.932177,"lng":-82.325247}],"distance":3917,"postalCode":"33511","cc":"US","city":"Brandon","state":"FL","country":"United States","formattedAddress":["519 Brandon Town Center Mall","Brandon, FL 33511","United States"]},"categories":[{"id":"4bf58dd8d48988d16e941735","name":"Fast Food Restaurant","pluralName":"Fast Food Restaurants","shortName":"Fast Food","icon":{"prefix":"https:\/\/ss3.4sqi.net\/img\/categories_v2\/food\/fastfood_","suffix":".png"},"primary":true}],"photos":{"count":0,"groups":[]}},"referralId":"e-3-4c1930c1838020a1a357e561-88"},{"reasons":{"count":0,"items":[{"summary":"This spot is popular","type":"general","reasonName":"globalInteractionReason"}]},"venue":{"id":"4ee4ea5db8f790fe40369381","name":"Genghis Grill","location":{"address":"910 Providence Rd","lat":27.924781095104393,"lng":-82.31736014263029,"labeledLatLngs":[{"label":"display","lat":27.924781095104393,"lng":-82.31736014263029}],"distance":3414,"postalCode":"33511","cc":"US","city":"Brandon","state":"FL","country":"United States","formattedAddress":["910 Providence Rd","Brandon, FL 33511","United States"]},"categories":[{"id":"4eb1d5724b900d56c88a45fe","name":"Mongolian Restaurant","pluralName":"Mongolian Restaurants","shortName":"Mongolian","icon":{"prefix":"https:\/\/ss3.4sqi.net\/img\/categories_v2\/food\/mongolian_","suffix":".png"},"primary":true}],"photos":{"count":0,"groups":[]}},"referralId":"e-3-4ee4ea5db8f790fe40369381-89"},{"reasons":{"count":0,"items":[{"summary":"This spot is popular","type":"general","reasonName":"globalInteractionReason"}]},"venue":{"id":"4e2ef71818a8ea95b0a0fe67","name":"Latin Cafe","location":{"address":"3318 John Moore Rd","lat":27.894474442383277,"lng":-82.2854426608662,"labeledLatLngs":[{"label":"display","lat":27.894474442383277,"lng":-82.2854426608662}],"distance":4823,"postalCode":"33511","cc":"US","city":"Brandon","state":"FL","country":"United States","formattedAddress":["3318 John Moore Rd","Brandon, FL 33511","United States"]},"categories":[{"id":"4bf58dd8d48988d1be941735","name":"Latin American Restaurant","pluralName":"Latin American Restaurants","shortName":"Latin American","icon":{"prefix":"https:\/\/ss3.4sqi.net\/img\/categories_v2\/food\/latinamerican_","suffix":".png"},"primary":true}],"photos":{"count":0,"groups":[]}},"referralId":"e-3-4e2ef71818a8ea95b0a0fe67-90"},{"reasons":{"count":0,"items":[{"summary":"This spot is popular","type":"general","reasonName":"globalInteractionReason"}]},"venue":{"id":"4be3fd9c1dd22d7fe7d997bd","name":"Dunkin'","location":{"address":"11200 E Dr Martin Luther King Jr Blvd Ste 102","lat":27.982069,"lng":-82.310238,"labeledLatLngs":[{"label":"display","lat":27.982069,"lng":-82.310238}],"distance":5477,"postalCode":"33584","cc":"US","city":"Seffner","state":"FL","country":"United States","formattedAddress":["11200 E Dr Martin Luther King Jr Blvd Ste 102","Seffner, FL 33584","United States"]},"categories":[{"id":"4bf58dd8d48988d148941735","name":"Donut Shop","pluralName":"Donut Shops","shortName":"Donuts","icon":{"prefix":"https:\/\/ss3.4sqi.net\/img\/categories_v2\/food\/donuts_","suffix":".png"},"primary":true}],"photos":{"count":0,"groups":[]}},"referralId":"e-3-4be3fd9c1dd22d7fe7d997bd-91"},{"reasons":{"count":0,"items":[{"summary":"This spot is popular","type":"general","reasonName":"globalInteractionReason"}]},"venue":{"id":"578bdcffcd108caadabb343a","name":"Bawarchi Biryani Point","location":{"address":"2020 W Brandon Blvd","crossStreet":"Suite 140","lat":27.938105583845104,"lng":-82.31790243276193,"labeledLatLngs":[{"label":"display","lat":27.938105583845104,"lng":-82.31790243276193}],"distance":3145,"postalCode":"33511","cc":"US","city":"Brandon","state":"FL","country":"United States","formattedAddress":["2020 W Brandon Blvd (Suite 140)","Brandon, FL 33511","United States"]},"categories":[{"id":"52e81612bcbc57f1066b79f8","name":"Pakistani Restaurant","pluralName":"Pakistani Restaurants","shortName":"Pakistani","icon":{"prefix":"https:\/\/ss3.4sqi.net\/img\/categories_v2\/food\/default_","suffix":".png"},"primary":true}],"delivery":{"id":"335716","url":"https:\/\/www.grubhub.com\/restaurant\/bawarchi-biryani-pointe-2020-w-brandon-blvd-ste-140-brandon\/335716?affiliate=1131&utm_source=foursquare-affiliate-network&utm_medium=affiliate&utm_campaign=1131&utm_content=335716","provider":{"name":"grubhub","icon":{"prefix":"https:\/\/fastly.4sqi.net\/img\/general\/cap\/","sizes":[40,50],"name":"\/delivery_provider_grubhub_20180129.png"}}},"photos":{"count":0,"groups":[]}},"referralId":"e-3-578bdcffcd108caadabb343a-92"},{"reasons":{"count":0,"items":[{"summary":"This spot is popular","type":"general","reasonName":"globalInteractionReason"}]},"venue":{"id":"4bd4388d462cb7132ddcdf07","name":"Recipe Box","location":{"address":"147 E Bloomingdale Ave","lat":27.892360060769764,"lng":-82.28438696247069,"labeledLatLngs":[{"label":"display","lat":27.892360060769764,"lng":-82.28438696247069}],"distance":5060,"postalCode":"33511","cc":"US","city":"Brandon","state":"FL","country":"United States","formattedAddress":["147 E Bloomingdale Ave","Brandon, FL 33511","United States"]},"categories":[{"id":"4bf58dd8d48988d14e941735","name":"American Restaurant","pluralName":"American Restaurants","shortName":"American","icon":{"prefix":"https:\/\/ss3.4sqi.net\/img\/categories_v2\/food\/default_","suffix":".png"},"primary":true}],"photos":{"count":0,"groups":[]}},"referralId":"e-3-4bd4388d462cb7132ddcdf07-93"},{"reasons":{"count":0,"items":[{"summary":"This spot is popular","type":"general","reasonName":"globalInteractionReason"}]},"venue":{"id":"4b36b9a0f964a520603b25e3","name":"Chili's Grill & Bar","location":{"address":"1949 W Brandon Blvd","lat":27.937016237457424,"lng":-82.31637836564893,"labeledLatLngs":[{"label":"display","lat":27.937016237457424,"lng":-82.31637836564893}],"distance":2996,"postalCode":"33511","cc":"US","city":"Brandon","state":"FL","country":"United States","formattedAddress":["1949 W Brandon Blvd","Brandon, FL 33511","United States"]},"categories":[{"id":"56aa371ae4b08b9a8d5734ba","name":"Tex-Mex Restaurant","pluralName":"Tex-Mex Restaurants","shortName":"Tex-Mex","icon":{"prefix":"https:\/\/ss3.4sqi.net\/img\/categories_v2\/food\/mexican_","suffix":".png"},"primary":true}],"photos":{"count":0,"groups":[]}},"referralId":"e-3-4b36b9a0f964a520603b25e3-94"},{"reasons":{"count":0,"items":[{"summary":"This spot is popular","type":"general","reasonName":"globalInteractionReason"}]},"venue":{"id":"52daa977498e06ecc3870c43","name":"Corner Bakery Cafe","location":{"address":"2326 W Brandon Blvd","lat":27.939735,"lng":-82.322438,"labeledLatLngs":[{"label":"display","lat":27.939735,"lng":-82.322438}],"distance":3597,"postalCode":"33511","cc":"US","city":"Brandon","state":"FL","country":"United States","formattedAddress":["2326 W Brandon Blvd","Brandon, FL 33511","United States"]},"categories":[{"id":"4bf58dd8d48988d16a941735","name":"Bakery","pluralName":"Bakeries","shortName":"Bakery","icon":{"prefix":"https:\/\/ss3.4sqi.net\/img\/categories_v2\/food\/bakery_","suffix":".png"},"primary":true}],"photos":{"count":0,"groups":[]}},"referralId":"e-3-52daa977498e06ecc3870c43-95"},{"reasons":{"count":0,"items":[{"summary":"This spot is popular","type":"general","reasonName":"globalInteractionReason"}]},"venue":{"id":"4ec29b2cf790741162098d86","name":"More Italian","location":{"address":"2498 W Brandon Blvd, Brandon, FL 33511","lat":27.9427437843477,"lng":-82.32430368970067,"labeledLatLngs":[{"label":"display","lat":27.9427437843477,"lng":-82.32430368970067}],"distance":3814,"postalCode":"33511","cc":"US","city":"Brandon","state":"FL","country":"United States","formattedAddress":["2498 W Brandon Blvd, Brandon, FL 33511","Brandon, FL 33511","United States"]},"categories":[{"id":"4bf58dd8d48988d1ca941735","name":"Pizza Place","pluralName":"Pizza Places","shortName":"Pizza","icon":{"prefix":"https:\/\/ss3.4sqi.net\/img\/categories_v2\/food\/pizza_","suffix":".png"},"primary":true}],"delivery":{"id":"1211866","url":"https:\/\/www.grubhub.com\/restaurant\/more-italian-bistro--pizzeria-2498-w-brandon-blvd-brandon\/1211866?affiliate=1131&utm_source=foursquare-affiliate-network&utm_medium=affiliate&utm_campaign=1131&utm_content=1211866","provider":{"name":"grubhub","icon":{"prefix":"https:\/\/fastly.4sqi.net\/img\/general\/cap\/","sizes":[40,50],"name":"\/delivery_provider_grubhub_20180129.png"}}},"photos":{"count":0,"groups":[]}},"referralId":"e-3-4ec29b2cf790741162098d86-96"},{"reasons":{"count":0,"items":[{"summary":"This spot is popular","type":"general","reasonName":"globalInteractionReason"}]},"venue":{"id":"4cab5f2e76d3a093b6a42b6b","name":"China 1","location":{"address":"125 E Bloomingdale Ave","lat":27.89285988111052,"lng":-82.28439112031376,"labeledLatLngs":[{"label":"display","lat":27.89285988111052,"lng":-82.28439112031376}],"distance":5005,"postalCode":"33511","cc":"US","city":"Brandon","state":"FL","country":"United States","formattedAddress":["125 E Bloomingdale Ave","Brandon, FL 33511","United States"]},"categories":[{"id":"4bf58dd8d48988d142941735","name":"Asian Restaurant","pluralName":"Asian Restaurants","shortName":"Asian","icon":{"prefix":"https:\/\/ss3.4sqi.net\/img\/categories_v2\/food\/asian_","suffix":".png"},"primary":true}],"photos":{"count":0,"groups":[]}},"referralId":"e-3-4cab5f2e76d3a093b6a42b6b-97"},{"reasons":{"count":0,"items":[{"summary":"This spot is popular","type":"general","reasonName":"globalInteractionReason"}]},"venue":{"id":"4bca4e9ffb84c9b61ef41c3e","name":"Olde Town Pizzeria","location":{"address":"115 W Bloomingdale Ave","crossStreet":"at John Moore","lat":27.893258708732773,"lng":-82.28673467453368,"labeledLatLngs":[{"label":"display","lat":27.893258708732773,"lng":-82.28673467453368}],"distance":4959,"postalCode":"33511","cc":"US","city":"Brandon","state":"FL","country":"United States","formattedAddress":["115 W Bloomingdale Ave (at John Moore)","Brandon, FL 33511","United States"]},"categories":[{"id":"4bf58dd8d48988d1ca941735","name":"Pizza Place","pluralName":"Pizza Places","shortName":"Pizza","icon":{"prefix":"https:\/\/ss3.4sqi.net\/img\/categories_v2\/food\/pizza_","suffix":".png"},"primary":true}],"photos":{"count":0,"groups":[]}},"referralId":"e-3-4bca4e9ffb84c9b61ef41c3e-98"},{"reasons":{"count":0,"items":[{"summary":"This spot is popular","type":"general","reasonName":"globalInteractionReason"}]},"venue":{"id":"532d901b498e1f0f4e6bce4b","name":"EATS! American Grill","location":{"address":"6264 Winthrop Town Centre Ave","lat":27.89207721582065,"lng":-82.31716812784835,"labeledLatLngs":[{"label":"display","lat":27.89207721582065,"lng":-82.31716812784835}],"distance":5945,"postalCode":"33578","cc":"US","city":"Riverview","state":"FL","country":"United States","formattedAddress":["6264 Winthrop Town Centre Ave","Riverview, FL 33578","United States"]},"categories":[{"id":"4bf58dd8d48988d14e941735","name":"American Restaurant","pluralName":"American Restaurants","shortName":"American","icon":{"prefix":"https:\/\/ss3.4sqi.net\/img\/categories_v2\/food\/default_","suffix":".png"},"primary":true}],"delivery":{"id":"467479","url":"https:\/\/www.grubhub.com\/restaurant\/eats-american-grill-6264-winthrop-town-centre-blvd-riverview\/467479?affiliate=1131&utm_source=foursquare-affiliate-network&utm_medium=affiliate&utm_campaign=1131&utm_content=467479","provider":{"name":"grubhub","icon":{"prefix":"https:\/\/fastly.4sqi.net\/img\/general\/cap\/","sizes":[40,50],"name":"\/delivery_provider_grubhub_20180129.png"}}},"photos":{"count":0,"groups":[]}},"referralId":"e-3-532d901b498e1f0f4e6bce4b-99"}]}]}}