{"meta":{"code":200,"requestId":"5d2913aadbde1100258b4f94"},"response":{"suggestedFilters":{"header":"Tap to show:","filters":[{"name":"Open now","key":"openNow"},{"name":"$-$$$$","key":"price"}]},"headerLocation":"Riverview","headerFullLocation":"Riverview","headerLocationGranularity":"city","query":"food","totalResults":180,"suggestedBounds":{"ne":{"lat":28.003485167500067,"lng":-82.22299463933102},"sw":{"lat":27.868485032499933,"lng":-82.37551576066899}},"groups":[{"type":"Recommended Places","name":"recommended","items":[{"reasons":{"count":0,"items":[{"summary":"This spot is popular","type":"general","reasonName":"globalInteractionReason"}]},"venue":{"id":"4c051afef423a593f376d216","name":"Moreno Bakery","location":{"address":"737 W Brandon Blvd","lat":27.936402630138993,"lng":-82.295101913512,"labeledLatLngs":[{"label":"display","lat":27.936402630138993,"lng":-82.295101913512}],"distance":411,"postalCode":"33511","cc":"US","city":"Brandon","state":"FL","country":"United States","formattedAddress":["737 W Brandon Blvd","Brandon, FL 33511","United States"]},"categories":[{"id":"4bf58dd8d48988d16a941735","name":"Bakery","pluralName":"Bakeries","shortName":"Bakery","icon":{"prefix":"https:\/\/ss3.4sqi.net\/img\/categories_v2\/food\/bakery_","suffix":".png"},"primary":true}],"photos":{"count":0,"groups":[]}},"referralId":"e-3-4c051afef423a593f376d216-0"},{"reasons":{"count":0,"items":[{"summary":"This spot is popular","type":"general","reasonName":"globalInteractionReason"}]},"venue":{"id":"5261c02811d233a4c6d5e0b9","name":"Pho Viet","location":{"address":"1202 W Brandon Blvd","lat":27.938097159562474,"lng":-82.30100366214975,"labeledLatLngs":[{"label":"display","lat":27.938097159562474,"lng":-82.30100366214975}],"distance":291,"postalCode":"33511","cc":"US","city":"Brandon","state":"FL","country":"United States","formattedAddress":["1202 W Brandon Blvd","Brandon, FL 33511","United States"]},"categories":[{"id":"4bf58dd8d48988d14a941735","name":"Vietnamese Restaurant","pluralName":"Vietnamese Restaurants","shortName":"Vietnamese","icon":{"prefix":"https:\/\/ss3.4sqi.net\/img\/categories_v2\/food\/vietnamese_","suffix":".png"},"primary":true}],"photos":{"count":0,"groups":[]}},"referralId":"e-3-5261c02811d233a4c6d5e0b9-1"},{"reasons":{"count":0,"items":[{"summary":"This spot is popular","type":"general","reasonName":"globalInteractionReason"}]},"venue":{"id":"4b7876ebf964a52026d02ee3","name":"Babe's Pizza","location":{"address":"107 N Kings Ave","lat":27.93866811479945,"lng":-82.2935858890099,"labeledLatLngs":[{"label":"display","lat":27.93866811479945,"lng":-82.2935858890099}],"distance":632,"postalCode":"33510","cc":"US","city":"Brandon","state":"FL","country":"United States","formattedAddress":["107 N Kings Ave","Brandon, FL 33510","United States"]},"categories":[{"id":"4bf58dd8d48988d1ca941735","name":"Pizza Place","pluralName":"Pizza Places","shortName":"Pizza","icon":{"prefix":"https:\/\/ss3.4sqi.net\/img\/categories_v2\/food\/pizza_","suffix":".png"},"primary":true}],"photos":{"count":0,"groups":[]}},"referralId":"e-3-4b7876ebf964a52026d02ee3-2"},{"reasons":{"count":0,"items":[{"summary":"This spot is popular","type":"general","reasonName":"globalInteractionReason"}]},"venue":{"id":"4c4f177adb2c20a1a46d7b75","name":"Romano Restaurant","location":{"address":"901 W Brandon Blvd","lat":27.93646952626137,"lng":-82.29675203005533,"labeledLatLngs":[{"label":"display","lat":27.93646952626137,"lng":-82.29675203005533}],"distance":252,"postalCode":"33511","cc":"US","city":"Brandon","state":"FL","country":"United States","formattedAddress":["901 W Brandon Blvd","Brandon, FL 33511","United States"]},"categories":[{"id":"4bf58dd8d48988d10e941735","name":"Greek Restaurant","pluralName":"Greek Restaurants","shortName":"Greek","icon":{"prefix":"https:\/\/ss3.4sqi.net\/img\/categories_v2\/food\/greek_","suffix":".png"},"primary":true}],"photos":{"count":0,"groups":[]}},"referralId":"e-3-4c4f177adb2c20a1a46d7b75-3"},{"reasons":{"count":0,"items":[{"summary":"This spot is popular","type":"general","reasonName":"globalInteractionReason"}]},"venue":{"id":"4e8f920f550342b5a3e1cce1","name":"Taste Of Berlin","location":{"address":"526 Oakfield Dr","lat":27.934251478210722,"lng":-82.29176661411653,"labeledLatLngs":[{"label":"display","lat":27.934251478210722,"lng":-82.29176661411653}],"distance":761,"postalCode":"33511","cc":"US","city":"Brandon","state":"FL","country":"United States","formattedAddress":["526 Oakfield Dr","Brandon, FL 33511","United States"]},"categories":[{"id":"4bf58dd8d48988d10d941735","name":"German Restaurant","pluralName":"German Restaurants","shortName":"German","icon":{"prefix":"https:\/\/ss3.4sqi.net\/img\/categories_v2\/food\/german_","suffix":".png"},"primary":true}],"photos":{"count":0,"groups":[]}},"referralId":"e-3-4e8f920f550342b5a3e1cce1-4"},{"reasons":{"count":0,"items":[{"summary":"This spot is popular","type":"general","reasonName":"globalInteractionReason"}]},"venue":{"id":"4dcc1091d4c0dfa030dee096","name":"La Septima Cafe","location":{"address":"702 W Lumsden Rd","crossStreet":"at Kings Ave.","lat":27.924803441574117,"lng":-82.29434643684529,"labeledLatLngs":[{"label":"display","lat":27.924803441574117,"lng":-82.29434643684529}],"distance":1335,"postalCode":"33511","cc":"US","city":"Brandon","state":"FL","country":"United States","formattedAddress":["702 W Lumsden Rd (at Kings Ave.)","Brandon, FL 33511","United States"]},"categories":[{"id":"4bf58dd8d48988d154941735","name":"Cuban Restaurant","pluralName":"Cuban Restaurants","shortName":"Cuban","icon":{"prefix":"https:\/\/ss3.4sqi.net\/img\/categories_v2\/food\/cuban_","suffix":".png"},"primary":true}],"photos":{"count":0,"groups":[]}},"referralId":"e-3-4dcc1091d4c0dfa030dee096-5"},{"reasons":{"count":0,"items":[{"summary":"This spot is popular","type":"general","reasonName":"globalInteractionReason"}]},"venue":{"id":"57bcd63f498e7db7d8ebcc0c","name":"Tibby's New Orleans Kitchen","location":{"lat":27.93741275423559,"lng":-82.31119729870852,"labeledLatLngs":[{"label":"display","lat":27.93741275423559,"lng":-82.31119729870852}],"distance":1185,"postalCode":"33511","cc":"US","neighborhood":"Bloomingdale Ridge","city":"Brandon","state":"FL","country":"United States","formattedAddress":["Brandon, FL 33511","United States"]},"categories":[{"id":"4bf58dd8d48988d17a941735","name":"Cajun \/ Creole Restaurant","pluralName":"Cajun \/ Creole Restaurants","shortName":"Cajun \/ Creole","icon":{"prefix":"https:\/\/ss3.4sqi.net\/img\/categories_v2\/food\/cajun_","suffix":".png"},"primary":true}],"photos":{"count":0,"groups":[]}},"referralId":"e-3-57bcd63f498e7db7d8ebcc0c-6"},{"reasons":{"count":0,"items":[{"summary":"This spot is popular","type":"general","reasonName":"globalInteractionReason"}]},"venue":{"id":"4b23d54df964a520c25a24e3","name":"Anthony's Coal Fired Pizza","location":{"address":"1912 W Brandon Blvd","crossStreet":"Off Exit 56 I-75, east of Brandon Town Center","lat":27.93806782031939,"lng":-82.31584360647572,"labeledLatLngs":[{"label":"display","lat":27.93806782031939,"lng":-82.31584360647572}],"distance":1647,"postalCode":"33511","cc":"US","city":"Brandon","state":"FL","country":"United States","formattedAddress":["1912 W Brandon Blvd (Off Exit 56 I-75, east of Brandon Town Center)","Brandon, FL 33511","United States"]},"categories":[{"id":"4bf58dd8d48988d1ca941735","name":"Pizza Place","pluralName":"Pizza Places","shortName":"Pizza","icon":{"prefix":"https:\/\/ss3.4sqi.net\/img\/categories_v2\/food\/pizza_","suffix":".png"},"primary":true}],"delivery":{"id":"670872","url":"https:\/\/www.grubhub.com\/restaurant\/anthonys-coal-fired-pizza-1912-w-brandon-blvd-brandon\/670872?affiliate=1131&utm_source=foursquare-affiliate-network&utm_medium=affiliate&utm_campaign=1131&utm_content=670872","provider":{"name":"grubhub","icon":{"prefix":"https:\/\/fastly.4sqi.net\/img\/general\/cap\/","sizes":[40,50],"name":"\/delivery_provider_grubhub_20180129.png"}}},"photos":{"count":0,"groups":[]}},"referralId":"e-3-4b23d54df964a520c25a24e3-7"},{"reasons":{"count":0,"items":[{"summary":"This spot is popular","type":"general","reasonName":"globalInteractionReason"}]},"venue":{"id":"56fdb196498e5f8c5179c994","name":"Portillo's","location":{"address":"1748 W Brandon Blvd","lat":27.93819238183879,"lng":-82.31183409690851,"labeledLatLngs":[{"label":"display","lat":27.93819238183879,"lng":-82.31183409690851}],"distance":1261,"postalCode":"33511","cc":"US","city":"Brandon","state":"FL","country":"United States","formattedAddress":["1748 W Brandon Blvd","Brandon, FL 33511","United States"]},"categories":[{"id":"4bf58dd8d48988d16f941735","name":"Hot Dog Joint","pluralName":"Hot Dog Joints","shortName":"Hot Dogs","icon":{"prefix":"https:\/\/ss3.4sqi.net\/img\/categories_v2\/food\/hotdog_","suffix":".png"},"primary":true}],"photos":{"count":0,"groups":[]}},"referralId":"e-3-56fdb196498e5f8c5179c994-8"},{"reasons":{"count":0,"items":[{"summary":"This spot is popular","type":"general","reasonName":"globalInteractionReason"}]},"venue":{"id":"4b072da1f964a520edf822e3","name":"Miller's Ale House","location":{"address":"1817 WEST BRANDON BLVD.","lat":27.93766,"lng":-82.31042,"labeledLatLngs":[{"label":"display","lat":27.93766,"lng":-82.31042}],"distance":1113,"postalCode":"33511","cc":"US","city":"Brandon","state":"FL","country":"United States","formattedAddress":["1817 WEST BRANDON BLVD.","Brandon, FL 33511","United States"]},"categories":[{"id":"4bf58dd8d48988d1c4941735","name":"Restaurant","pluralName":"Restaurants","shortName":"Restaurant","icon":{"prefix":"https:\/\/ss3.4sqi.net\/img\/categories_v2\/food\/default_","suffix":".png"},"primary":true}],"photos":{"count":0,"groups":[]}},"referralId":"e-3-4b072da1f964a520edf822e3-9"},{"reasons":{"count":0,"items":[{"summary":"This spot is popular","type":"general","reasonName":"globalInteractionReason"}]},"venue":{"id":"4c7814f2bd346dcbd6eaf0ef","name":"Five Guys","location":{"address":"1513 West Brandon Blvd.","lat":27.93735269840895,"lng":-82.30776039279867,"labeledLatLngs":[{"label":"display","lat":27.93735269840895,"lng":-82.30776039279867}],"distance":850,"postalCode":"33511","cc":"US","city":"Brandon","state":"FL","country":"United States","formattedAddress":["1513 West Brandon Blvd.","Brandon, FL 33511","United States"]},"categories":[{"id":"4bf58dd8d48988d16c941735","name":"Burger Joint","pluralName":"Burger Joints","shortName":"Burgers","icon":{"prefix":"https:\/\/ss3.4sqi.net\/img\/categories_v2\/food\/burger_","suffix":".png"},"primary":true}],"photos":{"count":0,"groups":[]}},"referralId":"e-3-4c7814f2bd346dcbd6eaf0ef-10"},{"reasons":{"count":0,"items":[{"summary":"This spot is popular","type":"general","reasonName":"globalInteractionReason"}]},"venue":{"id":"4b984118f964a520863735e3","name":"Ploy Thai","location":{"address":"1941 W Brandon Blvd","crossStreet":"SR 60","lat":27.93718305149021,"lng":-82.31600781434234,"labeledLatLngs":[{"label":"display","lat":27.93718305149021,"lng":-82.31600781434234}],"distance":1652,"postalCode":"33511","cc":"US","city":"Brandon","state":"FL","country":"United States","formattedAddress":["1941 W Brandon Blvd (SR 60)","Brandon, FL 33511","United States"]},"categories":[{"id":"4bf58dd8d48988d149941735","name":"Thai Restaurant","pluralName":"Thai Restaurants","shortName":"Thai","icon":{"prefix":"https:\/\/ss3.4sqi.net\/img\/categories_v2\/food\/thai_","suffix":".png"},"primary":true}],"photos":{"count":0,"groups":[]}},"referralId":"e-3-4b984118f964a520863735e3-11"},{"reasons":{"count":0,"items":[{"summary":"This spot is popular","type":"general","reasonName":"globalInteractionReason"}]},"venue":{"id":"5171cd8a498e616e54b37189","name":"Thai legacy","location":{"address":"120 N Parsons Ave","lat":27.938569465854393,"lng":-82.2857601931196,"labeledLatLngs":[{"label":"display","lat":27.938569465854393,"lng":-82.2857601931196}],"distance":1358,"postalCode":"33510","cc":"US","city":"Brandon","state":"FL","country":"United States","formattedAddress":["120 N Parsons Ave","Brandon, FL 33510","United States"]},"categories":[{"id":"4bf58dd8d48988d149941735","name":"Thai Restaurant","pluralName":"Thai Restaurants","shortName":"Thai","icon":{"prefix":"https:\/\/ss3.4sqi.net\/img\/categories_v2\/food\/thai_","suffix":".png"},"primary":true}],"photos":{"count":0,"groups":[]}},"referralId":"e-3-5171cd8a498e616e54b37189-12"},{"reasons":{"count":0,"items":[{"summary":"This spot is popular","type":"general","reasonName":"globalInteractionReason"}]},"venue":{"id":"4b0586c5f964a520946d22e3","name":"Carrabba's Italian Grill","location":{"address":"801 Providence Rd","lat":27.925242149597054,"lng":-82.3151127632206,"labeledLatLngs":[{"label":"display","lat":27.925242149597054,"lng":-82.3151127632206}],"distance":1965,"postalCode":"33511","cc":"US","city":"Brandon","state":"FL","country":"United States","formattedAddress":["801 Providence Rd","Brandon, FL 33511","United States"]},"categories":[{"id":"4bf58dd8d48988d110941735","name":"Italian Restaurant","pluralName":"Italian Restaurants","shortName":"Italian","icon":{"prefix":"https:\/\/ss3.4sqi.net\/img\/categories_v2\/food\/italian_","suffix":".png"},"primary":true}],"delivery":{"id":"1209837","url":"https:\/\/www.grubhub.com\/restaurant\/carrabbas-italian-grill-801-providence-rd-brandon\/1209837?affiliate=1131&utm_source=foursquare-affiliate-network&utm_medium=affiliate&utm_campaign=1131&utm_content=1209837","provider":{"name":"grubhub","icon":{"prefix":"https:\/\/fastly.4sqi.net\/img\/general\/cap\/","sizes":[40,50],"name":"\/delivery_provider_grubhub_20180129.png"}}},"photos":{"count":0,"groups":[]}},"referralId":"e-3-4b0586c5f964a520946d22e3-13"},{"reasons":{"count":0,"items":[{"summary":"This spot is popular","type":"general","reasonName":"globalInteractionReason"}]},"venue":{"id":"540dd3f4498efcfbb6cd2a00","name":"PDQ","location":{"address":"134 S Gornto Lake Rd","crossStreet":"at W Brandon Blvd","lat":27.9365302824147,"lng":-82.31933397898841,"labeledLatLngs":[{"label":"display","lat":27.9365302824147,"lng":-82.31933397898841}],"distance":1975,"postalCode":"33511","cc":"US","city":"Riverview","state":"FL","country":"United States","formattedAddress":["134 S Gornto Lake Rd (at W Brandon Blvd)","Riverview, FL 33511","United States"]},"categories":[{"id":"4d4ae6fc7a7b7dea34424761","name":"Fried Chicken Joint","pluralName":"Fried Chicken Joints","shortName":"Fried Chicken","icon":{"prefix":"https:\/\/ss3.4sqi.net\/img\/categories_v2\/food\/friedchicken_","suffix":".png"},"primary":true}],"photos":{"count":0,"groups":[]}},"referralId":"e-3-540dd3f4498efcfbb6cd2a00-14"},{"reasons":{"count":0,"items":[{"summary":"This spot is popular","type":"general","reasonName":"globalInteractionReason"}]},"venue":{"id":"4b256025f964a520df7024e3","name":"Yokohama","location":{"address":"760 W Lumsden Rd","crossStreet":"at Kings Ave.","lat":27.924699764453443,"lng":-82.29579627523934,"labeledLatLngs":[{"label":"display","lat":27.924699764453443,"lng":-82.29579627523934}],"distance":1301,"postalCode":"33511","cc":"US","city":"Brandon","state":"FL","country":"United States","formattedAddress":["760 W Lumsden Rd (at Kings Ave.)","Brandon, FL 33511","United States"]},"categories":[{"id":"4bf58dd8d48988d111941735","name":"Japanese Restaurant","pluralName":"Japanese Restaurants","shortName":"Japanese","icon":{"prefix":"https:\/\/ss3.4sqi.net\/img\/categories_v2\/food\/japanese_","suffix":".png"},"primary":true}],"photos":{"count":0,"groups":[]}},"referralId":"e-3-4b256025f964a520df7024e3-15"},{"reasons":{"count":0,"items":[{"summary":"This spot is popular","type":"general","reasonName":"globalInteractionReason"}]},"venue":{"id":"4cebfca9d99f721efdbac373","name":"Jesse's Steak & Seafood","location":{"address":"524 W Brandon Blvd","lat":27.93805214086931,"lng":-82.29202493370293,"labeledLatLngs":[{"label":"display","lat":27.93805214086931,"lng":-82.29202493370293}],"distance":747,"postalCode":"33511","cc":"US","city":"Brandon","state":"FL","country":"United States","formattedAddress":["524 W Brandon Blvd","Brandon, FL 33511","United States"]},"categories":[{"id":"4bf58dd8d48988d14e941735","name":"American Restaurant","pluralName":"American Restaurants","shortName":"American","icon":{"prefix":"https:\/\/ss3.4sqi.net\/img\/categories_v2\/food\/default_","suffix":".png"},"primary":true}],"photos":{"count":0,"groups":[]}},"referralId":"e-3-4cebfca9d99f721efdbac373-16"},{"reasons":{"count":0,"items":[{"summary":"This spot is popular","type":"general","reasonName":"globalInteractionReason"}]},"venue":{"id":"4c5019a4f080a59394dfefe1","name":"La Cubanita Cafe","location":{"address":"723 W Lumsden Rd","lat":27.92217949360207,"lng":-82.2957016250665,"labeledLatLngs":[{"label":"display","lat":27.92217949360207,"lng":-82.2957016250665}],"distance":1576,"postalCode":"33511","cc":"US","city":"Brandon","state":"FL","country":"United States","formattedAddress":["723 W Lumsden Rd","Brandon, FL 33511","United States"]},"categories":[{"id":"4bf58dd8d48988d154941735","name":"Cuban Restaurant","pluralName":"Cuban Restaurants","shortName":"Cuban","icon":{"prefix":"https:\/\/ss3.4sqi.net\/img\/categories_v2\/food\/cuban_","suffix":".png"},"primary":true}],"photos":{"count":0,"groups":[]}},"referralId":"e-3-4c5019a4f080a59394dfefe1-17"},{"reasons":{"count":0,"items":[{"summary":"This spot is popular","type":"general","reasonName":"globalInteractionReason"}]},"venue":{"id":"4bcb42a7b6c49c7463ca9191","name":"Beef 'O' Brady's","location":{"address":"210 S Kings Ave","crossStreet":"at Oakfield dr.","lat":27.935238669179,"lng":-82.29426513034784,"labeledLatLngs":[{"label":"display","lat":27.935238669179,"lng":-82.29426513034784}],"distance":497,"postalCode":"33511","cc":"US","city":"Brandon","state":"FL","country":"United States","formattedAddress":["210 S Kings Ave (at Oakfield dr.)","Brandon, FL 33511","United States"]},"categories":[{"id":"4bf58dd8d48988d14e941735","name":"American Restaurant","pluralName":"American Restaurants","shortName":"American","icon":{"prefix":"https:\/\/ss3.4sqi.net\/img\/categories_v2\/food\/default_","suffix":".png"},"primary":true}],"photos":{"count":0,"groups":[]},"venuePage":{"id":"32898718"}},"referralId":"e-3-4bcb42a7b6c49c7463ca9191-18"},{"reasons":{"count":0,"items":[{"summary":"This spot is popular","type":"general","reasonName":"globalInteractionReason"}]},"venue":{"id":"5826344a8e003314e056d910","name":"Black Rock Bar & Grill - Brandon","location":{"address":"804 Providence Rd","crossStreet":"Causeway Blvd.","lat":27.926258544786716,"lng":-82.31599213995909,"labeledLatLngs":[{"label":"display","lat":27.926258544786716,"lng":-82.31599213995909}],"distance":1970,"postalCode":"33511","cc":"US","city":"Brandon","state":"FL","country":"United States","formattedAddress":["804 Providence Rd (Causeway Blvd.)","Brandon, FL 33511","United States"]},"categories":[{"id":"4bf58dd8d48988d1cc941735","name":"Steakhouse","pluralName":"Steakhouses","shortName":"Steakhouse","icon":{"prefix":"https:\/\/ss3.4sqi.net\/img\/categories_v2\/food\/steakhouse_","suffix":".png"},"primary":true}],"photos":{"count":0,"groups":[]},"venuePage":{"id":"440259536"}},"referralId":"e-3-5826344a8e003314e056d910-19"},{"reasons":{"count":0,"items":[{"summary":"This spot is popular","type":"general","reasonName":"globalInteractionReason"}]},"venue":{"id":"553b117e498e5b4d0149bac9","name":"Salem's Gyros and subs","location":{"address":"903 W Brandon Blvd","lat":27.937373374547235,"lng":-82.29725241268554,"labeledLatLngs":[{"label":"display","lat":27.937373374547235,"lng":-82.29725241268554}],"distance":250,"postalCode":"33511","cc":"US","city":"Brandon","state":"FL","country":"United States","formattedAddress":["903 W Brandon Blvd","Brandon, FL 33511","United States"]},"categories":[{"id":"4bf58dd8d48988d14e941735","name":"American Restaurant","pluralName":"American Restaurants","shortName":"American","icon":{"prefix":"https:\/\/ss3.4sqi.net\/img\/categories_v2\/food\/default_","suffix":".png"},"primary":true}],"photos":{"count":0,"groups":[]}},"referralId":"e-3-553b117e498e5b4d0149bac9-20"},{"reasons":{"count":0,"items":[{"summary":"This spot is popular","type":"general","reasonName":"globalInteractionReason"}]},"venue":{"id":"526ef70d11d29e04fa4ea839","name":"Sushi Maru","location":{"address":"2020 W Brandon Blvd Ste 160","lat":27.938462370155317,"lng":-82.31799739346658,"labeledLatLngs":[{"label":"display","lat":27.938462370155317,"lng":-82.31799739346658}],"distance":1863,"postalCode":"33511","cc":"US","city":"Brandon","state":"FL","country":"United States","formattedAddress":["2020 W Brandon Blvd Ste 160","Brandon, FL 33511","United States"]},"categories":[{"id":"4bf58dd8d48988d111941735","name":"Japanese Restaurant","pluralName":"Japanese Restaurants","shortName":"Japanese","icon":{"prefix":"https:\/\/ss3.4sqi.net\/img\/categories_v2\/food\/japanese_","suffix":".png"},"primary":true}],"photos":{"count":0,"groups":[]}},"referralId":"e-3-526ef70d11d29e04fa4ea839-21"},{"reasons":{"count":0,"items":[{"summary":"This spot is popular","type":"general","reasonName":"globalInteractionReason"}]},"venue":{"id":"4b0586c7f964a520036e22e3","name":"Outback Steakhouse","location":{"address":"2020 W Brandon Blvd Ste 190","lat":27.938163097231577,"lng":-82.31824712941544,"labeledLatLngs":[{"label":"display","lat":27.938163097231577,"lng":-82.31824712941544}],"distance":1883,"postalCode":"33511","cc":"US","city":"Brandon","state":"FL","country":"United States","formattedAddress":["2020 W Brandon Blvd Ste 190","Brandon, FL 33511","United States"]},"categories":[{"id":"4bf58dd8d48988d1cc941735","name":"Steakhouse","pluralName":"Steakhouses","shortName":"Steakhouse","icon":{"prefix":"https:\/\/ss3.4sqi.net\/img\/categories_v2\/food\/steakhouse_","suffix":".png"},"primary":true}],"photos":{"count":0,"groups":[]}},"referralId":"e-3-4b0586c7f964a520036e22e3-22"},{"reasons":{"count":0,"items":[{"summary":"This spot is popular","type":"general","reasonName":"globalInteractionReason"}]},"venue":{"id":"4b4b7eaff964a520f49d26e3","name":"Chick-fil-A","location":{"address":"11325 Causeway Blvd","lat":27.9226642,"lng":-82.3210671,"labeledLatLngs":[{"label":"display","lat":27.9226642,"lng":-82.3210671}],"distance":2607,"postalCode":"33511","cc":"US","city":"Brandon","state":"FL","country":"United States","formattedAddress":["11325 Causeway Blvd","Brandon, FL 33511","United States"]},"categories":[{"id":"4bf58dd8d48988d16e941735","name":"Fast Food Restaurant","pluralName":"Fast Food Restaurants","shortName":"Fast Food","icon":{"prefix":"https:\/\/ss3.4sqi.net\/img\/categories_v2\/food\/fastfood_","suffix":".png"},"primary":true}],"photos":{"count":0,"groups":[]}},"referralId":"e-3-4b4b7eaff964a520f49d26e3-23"},{"reasons":{"count":0,"items":[{"summary":"This spot is popular","type":"general","reasonName":"globalInteractionReason"}]},"venue":{"id":"4b51275ff964a520084527e3","name":"Kobe Japanese Steakhouse & Sushi Bar","location":{"address":"2210 W Brandon Blvd","lat":27.93948,"lng":-82.32171,"labeledLatLngs":[{"label":"display","lat":27.93948,"lng":-82.32171}],"distance":2242,"postalCode":"33511","cc":"US","city":"Brandon","state":"FL","country":"United States","formattedAddress":["2210 W Brandon Blvd","Brandon, FL 33511","United States"]},"categories":[{"id":"4bf58dd8d48988d1d2941735","name":"Sushi Restaurant","pluralName":"Sushi Restaurants","shortName":"Sushi","icon":{"prefix":"https:\/\/ss3.4sqi.net\/img\/categories_v2\/food\/sushi_","suffix":".png"},"primary":true}],"photos":{"count":0,"groups":[]}},"referralId":"e-3-4b51275ff964a520084527e3-24"},{"reasons":{"count":0,"items":[{"summary":"This spot is popular","type":"general","reasonName":"globalInteractionReason"}]},"venue":{"id":"4b644baef964a52001a92ae3","name":"Waffle House","location":{"address":"1412 W. Brandon Blvd","lat":27.938086632583666,"lng":-82.30499033152965,"labeledLatLngs":[{"label":"display","lat":27.938086632583666,"lng":-82.30499033152965}],"distance":610,"postalCode":"33511","cc":"US","city":"Brandon","state":"FL","country":"United States","formattedAddress":["1412 W. Brandon Blvd","Brandon, FL 33511","United States"]},"categories":[{"id":"4bf58dd8d48988d143941735","name":"Breakfast Spot","pluralName":"Breakfast Spots","shortName":"Breakfast","icon":{"prefix":"https:\/\/ss3.4sqi.net\/img\/categories_v2\/food\/breakfast_","suffix":".png"},"primary":true}],"photos":{"count":0,"groups":[]}},"referralId":"e-3-4b644baef964a52001a92ae3-25"},{"reasons":{"count":0,"items":[{"summary":"This spot is popular","type":"general","reasonName":"globalInteractionReason"}]},"venue":{"id":"4bb7cd3db35776b08a34c801","name":"Bonefish Grill","location":{"address":"1015 Providence Rd","crossStreet":"at Causeway Blvd","lat":27.922116041345596,"lng":-82.3182088318047,"labeledLatLngs":[{"label":"display","lat":27.922116041345596,"lng":-82.3182088318047}],"distance":2420,"postalCode":"33511","cc":"US","city":"Brandon","state":"FL","country":"United States","formattedAddress":["1015 Providence Rd (at Causeway Blvd)","Brandon, FL 33511","United States"]},"categories":[{"id":"4bf58dd8d48988d1ce941735","name":"Seafood Restaurant","pluralName":"Seafood Restaurants","shortName":"Seafood","icon":{"prefix":"https:\/\/ss3.4sqi.net\/img\/categories_v2\/food\/seafood_","suffix":".png"},"primary":true}],"photos":{"count":0,"groups":[]}},"referralId":"e-3-4bb7cd3db35776b08a34c801-26"},{"reasons":{"count":0,"items":[{"summary":"This spot is popular","type":"general","reasonName":"globalInteractionReason"}]},"venue":{"id":"4b9bea97f964a520783536e3","name":"Krispy Kreme Doughnuts","location":{"address":"2128 W Brandon Blvd","crossStreet":"at Gornto Lake Rd.","lat":27.93839985217044,"lng":-82.31946610055672,"labeledLatLngs":[{"label":"display","lat":27.93839985217044,"lng":-82.31946610055672}],"distance":2005,"postalCode":"33511","cc":"US","city":"Brandon","state":"FL","country":"United States","formattedAddress":["2128 W Brandon Blvd (at Gornto Lake Rd.)","Brandon, FL 33511","United States"]},"categories":[{"id":"4bf58dd8d48988d148941735","name":"Donut Shop","pluralName":"Donut Shops","shortName":"Donuts","icon":{"prefix":"https:\/\/ss3.4sqi.net\/img\/categories_v2\/food\/donuts_","suffix":".png"},"primary":true}],"photos":{"count":0,"groups":[]}},"referralId":"e-3-4b9bea97f964a520783536e3-27"},{"reasons":{"count":0,"items":[{"summary":"This spot is popular","type":"general","reasonName":"globalInteractionReason"}]},"venue":{"id":"4b6b4ec0f964a520c1ff2be3","name":"Jasmine Thai","location":{"address":"1947 W Lumsden Rd","crossStreet":"Providence","lat":27.921471014587485,"lng":-82.31703036012115,"labeledLatLngs":[{"label":"display","lat":27.921471014587485,"lng":-82.31703036012115}],"distance":2380,"postalCode":"33511","cc":"US","city":"Brandon","state":"FL","country":"United States","formattedAddress":["1947 W Lumsden Rd (Providence)","Brandon, FL 33511","United States"]},"categories":[{"id":"4bf58dd8d48988d149941735","name":"Thai Restaurant","pluralName":"Thai Restaurants","shortName":"Thai","icon":{"prefix":"https:\/\/ss3.4sqi.net\/img\/categories_v2\/food\/thai_","suffix":".png"},"primary":true}],"photos":{"count":0,"groups":[]}},"referralId":"e-3-4b6b4ec0f964a520c1ff2be3-28"},{"reasons":{"count":0,"items":[{"summary":"This spot is popular","type":"general","reasonName":"globalInteractionReason"}]},"venue":{"id":"59f2016a50a6f06444c0da31","name":"P.F. Chang's","location":{"address":"827 Brandon Town Center Mall","lat":27.9321176,"lng":-82.3266678,"labeledLatLngs":[{"label":"display","lat":27.9321176,"lng":-82.3266678}],"distance":2730,"postalCode":"33511","cc":"US","city":"Brandon","state":"FL","country":"United States","formattedAddress":["827 Brandon Town Center Mall","Brandon, FL 33511","United States"]},"categories":[{"id":"4bf58dd8d48988d145941735","name":"Chinese Restaurant","pluralName":"Chinese Restaurants","shortName":"Chinese","icon":{"prefix":"https:\/\/ss3.4sqi.net\/img\/categories_v2\/food\/asian_","suffix":".png"},"primary":true}],"delivery":{"id":"662867","url":"https:\/\/www.grubhub.com\/restaurant\/pf-changs-827-brandon-town-center-mall-brandon\/662867?affiliate=1131&utm_source=foursquare-affiliate-network&utm_medium=affiliate&utm_campaign=1131&utm_content=662867","provider":{"name":"grubhub","icon":{"prefix":"https:\/\/fastly.4sqi.net\/img\/general\/cap\/","sizes":[40,50],"name":"\/delivery_provider_grubhub_20180129.png"}}},"photos":{"count":0,"groups":[]}},"referralId":"e-3-59f2016a50a6f06444c0da31-29"}]}]}}